[{
	"pathunid": "-1,48,49,51331",
	"name": "东区"
}, {
	"pathunid": "-1,48,49,51332",
	"name": "南区"
}, {
	"pathunid": "-1,48,49,51333",
	"name": "西区"
}, {
	"pathunid": "-1,48,49,51330",
	"name": "北区"
}, {
	"unid": 184,
	"punid": 51332,
	"pathunid": "-1,48,49,51332,184",
	"type": 4,
	"name": "香港特别行政区",
	"rank": 45263,
	"pathtext": "根地理信息,亚洲,中国,南区,香港特别行政区",
	"ename": "XiangGangTeBieXingZhengQu",
	"createdate": 1453196452287,
	"longitude": 114.21879568,
	"latitude": 22.23125699
}, {
	"unid": 250,
	"punid": 51332,
	"pathunid": "-1,48,49,51332,250",
	"type": 4,
	"name": "台湾",
	"rank": 2881,
	"pathtext": "根地理信息,亚洲,中国,南区,台湾",
	"ename": "TaiWanSheng",
	"createdate": 1453196452287,
	"longitude": 114.21879568,
	"latitude": 22.23125699
}, {
	"unid": 4361,
	"punid": 51330,
	"pathunid": "-1,48,49,51330,4361",
	"type": 4,
	"name": "河北省",
	"rank": 77185,
	"pathtext": "根地理信息,亚洲,中国,北区,河北省",
	"ename": "HeBeiSheng",
	"createdate": 1453196452287,
	"longitude": 115.66143362,
	"latitude": 38.61383975
}, {
	"unid": 4362,
	"punid": 51333,
	"pathunid": "-1,48,49,51333,4362",
	"type": 4,
	"name": "新疆维吾尔自治区",
	"rank": 15265,
	"pathtext": "根地理信息,亚洲,中国,西区,新疆维吾尔自治区",
	"ename": "XinJiangWeiWuErZiZhiQu",
	"createdate": 1453196452287,
	"longitude": 85.61489934,
	"latitude": 42.12700096
}, {
	"unid": 4363,
	"punid": 51331,
	"pathunid": "-1,48,49,51331,4363",
	"type": 4,
	"name": "浙江省",
	"rank": 65653,
	"pathtext": "根地理信息,亚洲,中国,东区,浙江省",
	"ename": "ZheJiangSheng",
	"createdate": 1453196452287,
	"longitude": 114.2094866,
	"latitude": 22.29358064
}, {
	"unid": 4364,
	"punid": 51331,
	"pathunid": "-1,48,49,51331,4364",
	"type": 4,
	"name": "安徽省",
	"rank": 61380,
	"pathtext": "根地理信息,亚洲,中国,东区,安徽省",
	"ename": "AnHuiSheng",
	"createdate": 1453196452287,
	"longitude": 114.2094866,
	"latitude": 22.29358064
}, {
	"unid": 4365,
	"punid": 51332,
	"pathunid": "-1,48,49,51332,4365",
	"type": 4,
	"name": "广西壮族自治区",
	"rank": 87876,
	"pathtext": "根地理信息,亚洲,中国,南区,广西壮族自治区",
	"ename": "GuangXiZhuangZuZiZhiQu",
	"createdate": 1453196452287,
	"longitude": 108.25187838,
	"latitude": 24.83584924
}, {
	"unid": 4366,
	"punid": 51332,
	"pathunid": "-1,48,49,51332,4366",
	"type": 4,
	"name": "福建省",
	"rank": 2793,
	"pathtext": "根地理信息,亚洲,中国,南区,福建省",
	"ename": "FuJianSheng",
	"createdate": 1453196452287,
	"longitude": 117.98494312,
	"latitude": 26.0501183
}, {
	"unid": 4367,
	"punid": 51332,
	"pathunid": "-1,48,49,51332,4367",
	"type": 4,
	"name": "广东省",
	"rank": 57915,
	"pathtext": "根地理信息,亚洲,中国,南区,广东省",
	"ename": "GuangDongSheng",
	"createdate": 1453196452287,
	"longitude": 114.62235647,
	"latitude": 22.69919399
}, {
	"unid": 4368,
	"punid": 51330,
	"pathunid": "-1,48,49,51330,4368",
	"type": 4,
	"name": "河南省",
	"rank": 62337,
	"pathtext": "根地理信息,亚洲,中国,北区,河南省",
	"ename": "HeNanSheng",
	"createdate": 1453196452287,
	"longitude": 113.48680406,
	"latitude": 34.15718377
}, {
	"unid": 4369,
	"punid": 51331,
	"pathunid": "-1,48,49,51331,4369",
	"type": 4,
	"name": "江苏省",
	"rank": 53283,
	"pathtext": "根地理信息,亚洲,中国,东区,江苏省",
	"ename": "JiangSuSheng",
	"createdate": 1453196452287,
	"longitude": 114.2094866,
	"latitude": 22.29358064
}, {
	"unid": 4370,
	"punid": 51333,
	"pathunid": "-1,48,49,51333,4370",
	"type": 4,
	"name": "贵州省",
	"rank": 23301,
	"pathtext": "根地理信息,亚洲,中国,西区,贵州省",
	"ename": "GuiZhouSheng",
	"createdate": 1453196452287,
	"longitude": 106.41551012,
	"latitude": 28.52184982
}, {
	"unid": 4372,
	"punid": 51332,
	"pathunid": "-1,48,49,51332,4372",
	"type": 4,
	"name": "湖南省",
	"rank": 3053,
	"pathtext": "根地理信息,亚洲,中国,南区,湖南省",
	"ename": "HuNanSheng",
	"createdate": 1453196452287,
	"longitude": 111.72066355,
	"latitude": 27.69586405
}, {
	"unid": 4374,
	"punid": 51330,
	"pathunid": "-1,48,49,51330,4374",
	"type": 4,
	"name": "辽宁省",
	"rank": 9265,
	"pathtext": "根地理信息,亚洲,中国,北区,辽宁省",
	"ename": "LiaoNingSheng",
	"createdate": 1453196452287,
	"longitude": 122.75359156,
	"latitude": 41.62160011
}, {
	"unid": 4375,
	"punid": 51330,
	"pathunid": "-1,48,49,51330,4375",
	"type": 4,
	"name": "内蒙古自治区",
	"rank": 7239,
	"pathtext": "根地理信息,亚洲,中国,北区,内蒙古自治区",
	"ename": "NeiMengGuZiZhiQu",
	"createdate": 1453196452287,
	"longitude": 114.41586755,
	"latitude": 43.46823822
}, {
	"unid": 4376,
	"punid": 51332,
	"pathunid": "-1,48,49,51332,4376",
	"type": 4,
	"name": "江西省",
	"rank": 65223,
	"pathtext": "根地理信息,亚洲,中国,南区,江西省",
	"ename": "JiangXiSheng",
	"createdate": 1453196452287,
	"longitude": 115.67608237,
	"latitude": 27.75725844
}, {
	"unid": 4377,
	"punid": 51332,
	"pathunid": "-1,48,49,51332,4377",
	"type": 4,
	"name": "海南省",
	"rank": 2100,
	"pathtext": "根地理信息,亚洲,中国,南区,海南省",
	"ename": "HaiNanSheng",
	"createdate": 1453196452287,
	"longitude": 109.73375549,
	"latitude": 19.1805008
}, {
	"unid": 4378,
	"punid": 51333,
	"pathunid": "-1,48,49,51333,4378",
	"type": 4,
	"name": "湖北省",
	"rank": 31509,
	"pathtext": "根地理信息,亚洲,中国,西区,湖北省",
	"ename": "HuBeiSheng",
	"createdate": 1453196452387,
	"longitude": 112.41056219,
	"latitude": 31.20931625
}, {
	"unid": 4379,
	"punid": 51333,
	"pathunid": "-1,48,49,51333,4379",
	"type": 4,
	"name": "四川省",
	"rank": 36295,
	"pathtext": "根地理信息,亚洲,中国,西区,四川省",
	"ename": "SiChuanSheng",
	"createdate": 1453196452287,
	"longitude": 101.55533231,
	"latitude": 26.61086914
}, {
	"unid": 4380,
	"punid": 51330,
	"pathunid": "-1,48,49,51330,4380",
	"type": 4,
	"name": "山东省",
	"rank": 16112,
	"pathtext": "根地理信息,亚洲,中国,北区,山东省",
	"ename": "ShanDongSheng",
	"createdate": 1453196452287,
	"longitude": 118.52766339,
	"latitude": 36.09928993
}, {
	"unid": 4381,
	"punid": 51333,
	"pathunid": "-1,48,49,51333,4381",
	"type": 4,
	"name": "甘肃省",
	"rank": 84773,
	"pathtext": "根地理信息,亚洲,中国,西区,甘肃省",
	"ename": "GanSuSheng",
	"createdate": 1453196452287,
	"longitude": 102.4576246,
	"latitude": 38.10326734
}, {
	"unid": 4397,
	"punid": 51330,
	"pathunid": "-1,48,49,51330,4397",
	"type": 4,
	"name": "山西省",
	"rank": 90813,
	"pathtext": "根地理信息,亚洲,中国,北区,山西省",
	"ename": "ShanXiSheng",
	"createdate": 1453196452287,
	"longitude": 112.51549586,
	"latitude": 37.86656599
}, {
	"unid": 4398,
	"punid": 51333,
	"pathunid": "-1,48,49,51333,4398",
	"type": 4,
	"name": "青海省",
	"rank": 75984,
	"pathtext": "根地理信息,亚洲,中国,西区,青海省",
	"ename": "QingHaiSheng",
	"createdate": 1453196452287,
	"longitude": 96.20254367,
	"latitude": 35.499761
}, {
	"unid": 4399,
	"punid": 51333,
	"pathunid": "-1,48,49,51333,4399",
	"type": 4,
	"name": "宁夏回族自治区",
	"rank": 52939,
	"pathtext": "根地理信息,亚洲,中国,西区,宁夏回族自治区",
	"ename": "NingXiaHuiZuZiZhiQu",
	"createdate": 1453196452287,
	"longitude": 106.15548127,
	"latitude": 37.32132311
}, {
	"unid": 4400,
	"punid": 51332,
	"pathunid": "-1,48,49,51332,4400",
	"type": 4,
	"name": "澳门特别行政区",
	"rank": 34171,
	"pathtext": "根地理信息,亚洲,中国,南区,澳门特别行政区",
	"ename": "AoMenTeBieXingZhengQu",
	"createdate": 1453196452287,
	"longitude": 114.21879568,
	"latitude": 22.23125699
}, {
	"unid": 4401,
	"punid": 51330,
	"pathunid": "-1,48,49,51330,4401",
	"type": 4,
	"name": "吉林省",
	"rank": 46034,
	"pathtext": "根地理信息,亚洲,中国,北区,吉林省",
	"ename": "JiLinSheng",
	"createdate": 1453196452287,
	"longitude": 126.26287593,
	"latitude": 43.67884619
}, {
	"unid": 4402,
	"punid": 51333,
	"pathunid": "-1,48,49,51333,4402",
	"type": 4,
	"name": "云南省",
	"rank": 55623,
	"pathtext": "根地理信息,亚洲,中国,西区,云南省",
	"ename": "YunNanSheng",
	"createdate": 1453196452287,
	"longitude": 104.11412925,
	"latitude": 37.55033947
}, {
	"unid": 4403,
	"punid": 51333,
	"pathunid": "-1,48,49,51333,4403",
	"type": 4,
	"name": "西藏自治区",
	"rank": 83195,
	"pathtext": "根地理信息,亚洲,中国,西区,西藏自治区",
	"ename": "XiZangZiZhiQu",
	"createdate": 1453196452287,
	"longitude": 89.13798168,
	"latitude": 31.3673154
}, {
	"unid": 4405,
	"punid": 51330,
	"pathunid": "-1,48,49,51330,4405",
	"type": 4,
	"name": "黑龙江省",
	"rank": 28741,
	"pathtext": "根地理信息,亚洲,中国,北区,黑龙江省",
	"ename": "HeiLongJiangSheng",
	"createdate": 1453196452287,
	"longitude": 124.49826298,
	"latitude": 47.60608614
}, {
	"unid": 4406,
	"punid": 51333,
	"pathunid": "-1,48,49,51333,4406",
	"type": 4,
	"name": "陕西省",
	"rank": 38418,
	"pathtext": "根地理信息,亚洲,中国,西区,陕西省",
	"ename": "ShanXiSheng",
	"createdate": 1453196452287,
	"longitude": 109.50378929,
	"latitude": 35.86002626
}, {
	"unid": 4408,
	"punid": 4374,
	"pathunid": "-1,48,49,51330,4374,4408",
	"type": 5,
	"name": "大连市",
	"rank": 10600,
	"pathtext": "根地理信息,亚洲,中国,北区,辽宁省,大连市",
	"ename": "DaLianShi",
	"createdate": 1453196452287,
	"longitude": 121.59347778,
	"latitude": 38.94870994
}, {
	"unid": 4409,
	"punid": 4374,
	"pathunid": "-1,48,49,51330,4374,4409",
	"type": 5,
	"name": "鞍山市",
	"rank": 27562,
	"pathtext": "根地理信息,亚洲,中国,北区,辽宁省,鞍山市",
	"ename": "AnShanShi",
	"createdate": 1453196452287,
	"longitude": 123.00776333,
	"latitude": 41.11874368
}, {
	"unid": 4410,
	"punid": 4374,
	"pathunid": "-1,48,49,51330,4374,4410",
	"type": 5,
	"name": "抚顺市",
	"rank": 72399,
	"pathtext": "根地理信息,亚洲,中国,北区,辽宁省,抚顺市",
	"ename": "FuShunShi",
	"createdate": 1453196452287,
	"longitude": 123.92981977,
	"latitude": 41.87730383
}, {
	"unid": 4411,
	"punid": 4374,
	"pathunid": "-1,48,49,51330,4374,4411",
	"type": 5,
	"name": "沈阳市",
	"rank": 83393,
	"pathtext": "根地理信息,亚洲,中国,北区,辽宁省,沈阳市",
	"ename": "ShenYangShi",
	"createdate": 1453196452287,
	"longitude": 123.43279092,
	"latitude": 41.80864478
}, {
	"unid": 4412,
	"punid": 4374,
	"pathunid": "-1,48,49,51330,4374,4412",
	"type": 5,
	"name": "锦州市",
	"rank": 7905,
	"pathtext": "根地理信息,亚洲,中国,北区,辽宁省,锦州市",
	"ename": "JinZhouShi",
	"createdate": 1453196452287,
	"longitude": 121.14774874,
	"latitude": 41.13087888
}, {
	"unid": 4413,
	"punid": 4374,
	"pathunid": "-1,48,49,51330,4374,4413",
	"type": 5,
	"name": "营口市",
	"rank": 65930,
	"pathtext": "根地理信息,亚洲,中国,北区,辽宁省,营口市",
	"ename": "YingKouShi",
	"createdate": 1453196452287,
	"longitude": 122.23339137,
	"latitude": 40.66865107
}, {
	"unid": 4414,
	"punid": 4374,
	"pathunid": "-1,48,49,51330,4374,4414",
	"type": 5,
	"name": "阜新市",
	"rank": 54324,
	"pathtext": "根地理信息,亚洲,中国,北区,辽宁省,阜新市",
	"ename": "FuXinShi",
	"createdate": 1453196452287,
	"longitude": 121.66082213,
	"latitude": 42.01925011
}, {
	"unid": 4415,
	"punid": 4374,
	"pathunid": "-1,48,49,51330,4374,4415",
	"type": 5,
	"name": "本溪市",
	"rank": 4671,
	"pathtext": "根地理信息,亚洲,中国,北区,辽宁省,本溪市",
	"ename": "BenXiShi",
	"createdate": 1453196452287,
	"longitude": 123.77806237,
	"latitude": 41.32583763
}, {
	"unid": 4416,
	"punid": 4374,
	"pathunid": "-1,48,49,51330,4374,4416",
	"type": 5,
	"name": "丹东市",
	"rank": 73043,
	"pathtext": "根地理信息,亚洲,中国,北区,辽宁省,丹东市",
	"ename": "DanDongShi",
	"createdate": 1453196452287,
	"longitude": 124.33854311,
	"latitude": 40.12902283
}, {
	"unid": 4417,
	"punid": 4374,
	"pathunid": "-1,48,49,51330,4374,4417",
	"type": 5,
	"name": "葫芦岛市",
	"rank": 32198,
	"pathtext": "根地理信息,亚洲,中国,北区,辽宁省,葫芦岛市",
	"ename": "HuLuDaoShi",
	"createdate": 1453196452287,
	"longitude": 120.86075764,
	"latitude": 40.74302988
}, {
	"unid": 4418,
	"punid": 4374,
	"pathunid": "-1,48,49,51330,4374,4418",
	"type": 5,
	"name": "朝阳市",
	"rank": 29930,
	"pathtext": "根地理信息,亚洲,中国,北区,辽宁省,朝阳市",
	"ename": "ChaoYangShi",
	"createdate": 1453196452287,
	"longitude": 120.4461627,
	"latitude": 41.57182767
}, {
	"unid": 4419,
	"punid": 4374,
	"pathunid": "-1,48,49,51330,4374,4419",
	"type": 5,
	"name": "铁岭市",
	"rank": 3126,
	"pathtext": "根地理信息,亚洲,中国,北区,辽宁省,铁岭市",
	"ename": "TieLingShi",
	"createdate": 1453196452287,
	"longitude": 123.85484961,
	"latitude": 42.29975701
}, {
	"unid": 4420,
	"punid": 4374,
	"pathunid": "-1,48,49,51330,4374,4420",
	"type": 5,
	"name": "盘锦市",
	"rank": 10107,
	"pathtext": "根地理信息,亚洲,中国,北区,辽宁省,盘锦市",
	"ename": "PanJinShi",
	"createdate": 1453196452287,
	"longitude": 122.07322781,
	"latitude": 41.14124802
}, {
	"unid": 4421,
	"punid": 4374,
	"pathunid": "-1,48,49,51330,4374,4421",
	"type": 5,
	"name": "辽阳市",
	"rank": 86434,
	"pathtext": "根地理信息,亚洲,中国,北区,辽宁省,辽阳市",
	"ename": "LiaoYangShi",
	"createdate": 1453196452287,
	"longitude": 123.17245121,
	"latitude": 41.27333927
}, {
	"unid": 4422,
	"punid": 4378,
	"pathunid": "-1,48,49,51333,4378,4422",
	"type": 5,
	"name": "宜昌市",
	"rank": 96677,
	"pathtext": "根地理信息,亚洲,中国,西区,湖北省,宜昌市",
	"ename": "YiChangShi",
	"createdate": 1453196452287,
	"longitude": 111.31098109,
	"latitude": 30.73275782
}, {
	"unid": 4423,
	"punid": 4378,
	"pathunid": "-1,48,49,51333,4378,4423",
	"type": 5,
	"name": "襄阳市",
	"rank": 59711,
	"pathtext": "根地理信息,亚洲,中国,西区,湖北省,襄阳市",
	"ename": "XiangYangShi",
	"createdate": 1453196452287,
	"longitude": 112.25009285,
	"latitude": 32.22916859
}, {
	"unid": 4424,
	"punid": 4378,
	"pathunid": "-1,48,49,51333,4378,4424",
	"type": 5,
	"name": "鄂州市",
	"rank": 63682,
	"pathtext": "根地理信息,亚洲,中国,西区,湖北省,鄂州市",
	"ename": "EZhouShi",
	"createdate": 1453196452287,
	"longitude": 114.89559404,
	"latitude": 30.38443932
}, {
	"unid": 4425,
	"punid": 4378,
	"pathunid": "-1,48,49,51333,4378,4425",
	"type": 5,
	"name": "荆门市",
	"rank": 62499,
	"pathtext": "根地理信息,亚洲,中国,西区,湖北省,荆门市",
	"ename": "JingMenShi",
	"createdate": 1453196452287,
	"longitude": 112.2173303,
	"latitude": 31.0426112
}, {
	"unid": 4426,
	"punid": 4378,
	"pathunid": "-1,48,49,51333,4378,4426",
	"type": 5,
	"name": "武汉市",
	"rank": 95016,
	"pathtext": "根地理信息,亚洲,中国,西区,湖北省,武汉市",
	"ename": "WuHanShi",
	"createdate": 1453196452287,
	"longitude": 114.3162001,
	"latitude": 30.58108413
}, {
	"unid": 4427,
	"punid": 4378,
	"pathunid": "-1,48,49,51333,4378,4427",
	"type": 5,
	"name": "黄石市",
	"rank": 85136,
	"pathtext": "根地理信息,亚洲,中国,西区,湖北省,黄石市",
	"ename": "HuangShiShi",
	"createdate": 1453196452287,
	"longitude": 115.05068316,
	"latitude": 30.21612713
}, {
	"unid": 4428,
	"punid": 4378,
	"pathunid": "-1,48,49,51333,4378,4428",
	"type": 5,
	"name": "十堰市",
	"rank": 43037,
	"pathtext": "根地理信息,亚洲,中国,西区,湖北省,十堰市",
	"ename": "ShiYanShi",
	"createdate": 1453196452287,
	"longitude": 110.80122892,
	"latitude": 32.63699434
}, {
	"unid": 4429,
	"punid": 4378,
	"pathunid": "-1,48,49,51333,4378,4429",
	"type": 5,
	"name": "孝感市",
	"rank": 79368,
	"pathtext": "根地理信息,亚洲,中国,西区,湖北省,孝感市",
	"ename": "XiaoGanShi",
	"createdate": 1453196452287,
	"longitude": 113.93573439,
	"latitude": 30.92795478
}, {
	"unid": 4430,
	"punid": 4378,
	"pathunid": "-1,48,49,51333,4378,4430",
	"type": 5,
	"name": "黄冈市",
	"rank": 83327,
	"pathtext": "根地理信息,亚洲,中国,西区,湖北省,黄冈市",
	"ename": "HuangGangShi",
	"createdate": 1453196452287,
	"longitude": 114.90661805,
	"latitude": 30.44610894
}, {
	"unid": 4431,
	"punid": 4378,
	"pathunid": "-1,48,49,51333,4378,4431",
	"type": 5,
	"name": "荆州市",
	"rank": 77489,
	"pathtext": "根地理信息,亚洲,中国,西区,湖北省,荆州市",
	"ename": "JingZhouShi",
	"createdate": 1453196452287,
	"longitude": 112.24186581,
	"latitude": 30.33259052
}, {
	"unid": 4432,
	"punid": 4378,
	"pathunid": "-1,48,49,51333,4378,4432",
	"type": 5,
	"name": "咸宁市",
	"rank": 5331,
	"pathtext": "根地理信息,亚洲,中国,西区,湖北省,咸宁市",
	"ename": "XianNingShi",
	"createdate": 1453196452287,
	"longitude": 114.30006059,
	"latitude": 29.88065676
}, {
	"unid": 4433,
	"punid": 4378,
	"pathunid": "-1,48,49,51333,4378,4433",
	"type": 5,
	"name": "随州市",
	"rank": 97886,
	"pathtext": "根地理信息,亚洲,中国,西区,湖北省,随州市",
	"ename": "SuiZhouShi",
	"createdate": 1453196452287,
	"longitude": 113.37935836,
	"latitude": 31.71785761
}, {
	"unid": 4434,
	"punid": 4378,
	"pathunid": "-1,48,49,51333,4378,4434",
	"type": 5,
	"name": "恩施土家族苗族自治州",
	"rank": 2536,
	"pathtext": "根地理信息,亚洲,中国,西区,湖北省,恩施土家族苗族自治州",
	"ename": "EnShiTuJiaZuMiaoZuZiZhiZhou",
	"createdate": 1453196452287,
	"longitude": 109.4919233,
	"latitude": 30.28588832
}, {
	"unid": 4435,
	"punid": 4378,
	"pathunid": "-1,48,49,51333,4378,4435",
	"type": 5,
	"name": "潜江市",
	"rank": 96590,
	"pathtext": "根地理信息,亚洲,中国,西区,湖北省,潜江市",
	"ename": "QianJiangShi",
	"createdate": 1453196452287,
	"longitude": 112.76876802,
	"latitude": 30.34311579
}, {
	"unid": 4436,
	"punid": 4378,
	"pathunid": "-1,48,49,51333,4378,4436",
	"type": 5,
	"name": "仙桃市",
	"rank": 90410,
	"pathtext": "根地理信息,亚洲,中国,西区,湖北省,仙桃市",
	"ename": "XianTaoShi",
	"createdate": 1453196452287,
	"longitude": 113.38744819,
	"latitude": 30.293966
}, {
	"unid": 4437,
	"punid": 4378,
	"pathunid": "-1,48,49,51333,4378,4437",
	"type": 5,
	"name": "天门市",
	"rank": 96807,
	"pathtext": "根地理信息,亚洲,中国,西区,湖北省,天门市",
	"ename": "TianMenShi",
	"createdate": 1453196452287,
	"longitude": 113.12623049,
	"latitude": 30.64904736
}, {
	"unid": 4438,
	"punid": 4378,
	"pathunid": "-1,48,49,51333,4378,4438",
	"type": 5,
	"name": "神农架林区",
	"rank": 85487,
	"pathtext": "根地理信息,亚洲,中国,西区,湖北省,神农架林区",
	"ename": "ShenNongJiaLinQu",
	"createdate": 1453196452287,
	"longitude": 110.4872307,
	"latitude": 31.5957676
}, {
	"unid": 4439,
	"punid": 4397,
	"pathunid": "-1,48,49,51330,4397,4439",
	"type": 5,
	"name": "运城市",
	"rank": 91405,
	"pathtext": "根地理信息,亚洲,中国,北区,山西省,运城市",
	"ename": "YunChengShi",
	"createdate": 1453196452287,
	"longitude": 111.00685365,
	"latitude": 35.03885948
}, {
	"unid": 4440,
	"punid": 4397,
	"pathunid": "-1,48,49,51330,4397,4440",
	"type": 5,
	"name": "忻州市",
	"rank": 24781,
	"pathtext": "根地理信息,亚洲,中国,北区,山西省,忻州市",
	"ename": "XinZhouShi",
	"createdate": 1453196452287,
	"longitude": 112.72793883,
	"latitude": 38.46103057
}, {
	"unid": 4441,
	"punid": 4397,
	"pathunid": "-1,48,49,51330,4397,4441",
	"type": 5,
	"name": "临汾市",
	"rank": 66911,
	"pathtext": "根地理信息,亚洲,中国,北区,山西省,临汾市",
	"ename": "LinFenShi",
	"createdate": 1453196452287,
	"longitude": 111.5387876,
	"latitude": 36.09974544
}, {
	"unid": 4442,
	"punid": 4397,
	"pathunid": "-1,48,49,51330,4397,4442",
	"type": 5,
	"name": "吕梁市",
	"rank": 91159,
	"pathtext": "根地理信息,亚洲,中国,北区,山西省,吕梁市",
	"ename": "LvLiangShi",
	"createdate": 1453196452287,
	"longitude": 111.1431566,
	"latitude": 37.5273161
}, {
	"unid": 4443,
	"punid": 4397,
	"pathunid": "-1,48,49,51330,4397,4443",
	"type": 5,
	"name": "阳泉市",
	"rank": 41845,
	"pathtext": "根地理信息,亚洲,中国,北区,山西省,阳泉市",
	"ename": "YangQuanShi",
	"createdate": 1453196452287,
	"longitude": 113.5692376,
	"latitude": 37.86952949
}, {
	"unid": 4444,
	"punid": 4397,
	"pathunid": "-1,48,49,51330,4397,4444",
	"type": 5,
	"name": "长治市",
	"rank": 37327,
	"pathtext": "根地理信息,亚洲,中国,北区,山西省,长治市",
	"ename": "ChangZhiShi",
	"createdate": 1453196452287,
	"longitude": 113.12029209,
	"latitude": 36.20166439
}, {
	"unid": 4445,
	"punid": 4397,
	"pathunid": "-1,48,49,51330,4397,4445",
	"type": 5,
	"name": "晋城市",
	"rank": 47063,
	"pathtext": "根地理信息,亚洲,中国,北区,山西省,晋城市",
	"ename": "JinChengShi",
	"createdate": 1453196452287,
	"longitude": 112.86733276,
	"latitude": 35.49983447
}, {
	"unid": 4446,
	"punid": 4397,
	"pathunid": "-1,48,49,51330,4397,4446",
	"type": 5,
	"name": "朔州市",
	"rank": 68780,
	"pathtext": "根地理信息,亚洲,中国,北区,山西省,朔州市",
	"ename": "ShuoZhouShi",
	"createdate": 1453196452287,
	"longitude": 112.47992773,
	"latitude": 39.33767197
}, {
	"unid": 4447,
	"punid": 4397,
	"pathunid": "-1,48,49,51330,4397,4447",
	"type": 5,
	"name": "晋中市",
	"rank": 1274,
	"pathtext": "根地理信息,亚洲,中国,北区,山西省,晋中市",
	"ename": "JinZhongShi",
	"createdate": 1453196452287,
	"longitude": 112.7385144,
	"latitude": 37.69336153
}, {
	"unid": 4448,
	"punid": 4397,
	"pathunid": "-1,48,49,51330,4397,4448",
	"type": 5,
	"name": "太原市",
	"rank": 54355,
	"pathtext": "根地理信息,亚洲,中国,北区,山西省,太原市",
	"ename": "TaiYuanShi",
	"createdate": 1453196452287,
	"longitude": 112.55086359,
	"latitude": 37.89027705
}, {
	"unid": 4449,
	"punid": 4397,
	"pathunid": "-1,48,49,51330,4397,4449",
	"type": 5,
	"name": "大同市",
	"rank": 51012,
	"pathtext": "根地理信息,亚洲,中国,北区,山西省,大同市",
	"ename": "DaTongShi",
	"createdate": 1453196452287,
	"longitude": 113.29050867,
	"latitude": 40.1137445
}, {
	"unid": 4450,
	"punid": 4366,
	"pathunid": "-1,48,49,51332,4366,4450",
	"type": 5,
	"name": "龙岩市",
	"rank": 81952,
	"pathtext": "根地理信息,亚洲,中国,南区,福建省,龙岩市",
	"ename": "LongYanShi",
	"createdate": 1453196452287,
	"longitude": 117.01799674,
	"latitude": 25.07868543
}, {
	"unid": 4451,
	"punid": 4366,
	"pathunid": "-1,48,49,51332,4366,4451",
	"type": 5,
	"name": "宁德市",
	"rank": 51068,
	"pathtext": "根地理信息,亚洲,中国,南区,福建省,宁德市",
	"ename": "NingDeShi",
	"createdate": 1453196452287,
	"longitude": 119.54208215,
	"latitude": 26.65652742
}, {
	"unid": 4452,
	"punid": 4366,
	"pathunid": "-1,48,49,51332,4366,4452",
	"type": 5,
	"name": "泉州市",
	"rank": 66552,
	"pathtext": "根地理信息,亚洲,中国,南区,福建省,泉州市",
	"ename": "QuanZhouShi",
	"createdate": 1453196452287,
	"longitude": 118.60036234,
	"latitude": 24.90165238
}, {
	"unid": 4453,
	"punid": 4366,
	"pathunid": "-1,48,49,51332,4366,4453",
	"type": 5,
	"name": "南平市",
	"rank": 58781,
	"pathtext": "根地理信息,亚洲,中国,南区,福建省,南平市",
	"ename": "NanPingShi",
	"createdate": 1453196452287,
	"longitude": 118.18188295,
	"latitude": 26.64362647
}, {
	"unid": 4454,
	"punid": 4366,
	"pathunid": "-1,48,49,51332,4366,4454",
	"type": 5,
	"name": "漳州市",
	"rank": 47825,
	"pathtext": "根地理信息,亚洲,中国,南区,福建省,漳州市",
	"ename": "ZhangZhouShi",
	"createdate": 1453196452287,
	"longitude": 117.67620468,
	"latitude": 24.51706478
}, {
	"unid": 4455,
	"punid": 4366,
	"pathunid": "-1,48,49,51332,4366,4455",
	"type": 5,
	"name": "莆田市",
	"rank": 3536,
	"pathtext": "根地理信息,亚洲,中国,南区,福建省,莆田市",
	"ename": "PuTianShi",
	"createdate": 1453196452287,
	"longitude": 119.07773096,
	"latitude": 25.44845014
}, {
	"unid": 4456,
	"punid": 4366,
	"pathunid": "-1,48,49,51332,4366,4456",
	"type": 5,
	"name": "三明市",
	"rank": 85415,
	"pathtext": "根地理信息,亚洲,中国,南区,福建省,三明市",
	"ename": "SanMingShi",
	"createdate": 1453196452287,
	"longitude": 117.64219393,
	"latitude": 26.27083528
}, {
	"unid": 4457,
	"punid": 4366,
	"pathunid": "-1,48,49,51332,4366,4457",
	"type": 5,
	"name": "福州市",
	"rank": 71462,
	"pathtext": "根地理信息,亚洲,中国,南区,福建省,福州市",
	"ename": "FuZhouShi",
	"createdate": 1453196452287,
	"longitude": 119.33022111,
	"latitude": 26.0471255
}, {
	"unid": 4458,
	"punid": 4366,
	"pathunid": "-1,48,49,51332,4366,4458",
	"type": 5,
	"name": "厦门市",
	"rank": 71436,
	"pathtext": "根地理信息,亚洲,中国,南区,福建省,厦门市",
	"ename": "XiaMenShi",
	"createdate": 1453196452287,
	"longitude": 118.10388605,
	"latitude": 24.48923061
}, {
	"unid": 4459,
	"punid": 4398,
	"pathunid": "-1,48,49,51333,4398,4459",
	"type": 5,
	"name": "西宁市",
	"rank": 14547,
	"pathtext": "根地理信息,亚洲,中国,西区,青海省,西宁市",
	"ename": "XiNingShi",
	"createdate": 1453196452287,
	"longitude": 101.76792099,
	"latitude": 36.64073861
}, {
	"unid": 4460,
	"punid": 4398,
	"pathunid": "-1,48,49,51333,4398,4460",
	"type": 5,
	"name": "海北藏族自治州",
	"rank": 31751,
	"pathtext": "根地理信息,亚洲,中国,西区,青海省,海北藏族自治州",
	"ename": "HaiBeiZangZuZiZhiZhou",
	"createdate": 1453196452287,
	"longitude": 100.87980217,
	"latitude": 36.9606541
}, {
	"unid": 4461,
	"punid": 4398,
	"pathunid": "-1,48,49,51333,4398,4461",
	"type": 5,
	"name": "黄南藏族自治州",
	"rank": 53248,
	"pathtext": "根地理信息,亚洲,中国,西区,青海省,黄南藏族自治州",
	"ename": "HuangNanZangZuZiZhiZhou",
	"createdate": 1453196452287,
	"longitude": 102.00760031,
	"latitude": 35.52285155
}, {
	"unid": 4462,
	"punid": 4398,
	"pathunid": "-1,48,49,51333,4398,4462",
	"type": 5,
	"name": "海东市",
	"rank": 80266,
	"pathtext": "根地理信息,亚洲,中国,西区,青海省,海东市",
	"ename": "HaiDongShi",
	"createdate": 1453196452287,
	"longitude": 102.08520699,
	"latitude": 36.51761017
}, {
	"unid": 4463,
	"punid": 4398,
	"pathunid": "-1,48,49,51333,4398,4463",
	"type": 5,
	"name": "海西蒙古族藏族自治州",
	"rank": 92177,
	"pathtext": "根地理信息,亚洲,中国,西区,青海省,海西蒙古族藏族自治州",
	"ename": "HaiXiMengGuZuZangZuZiZhiZhou",
	"createdate": 1453196452287,
	"longitude": 97.34262542,
	"latitude": 37.37379907
}, {
	"unid": 4464,
	"punid": 4398,
	"pathunid": "-1,48,49,51333,4398,4464",
	"type": 5,
	"name": "果洛藏族自治州",
	"rank": 23816,
	"pathtext": "根地理信息,亚洲,中国,西区,青海省,果洛藏族自治州",
	"ename": "GuoLuoZangZuZiZhiZhou",
	"createdate": 1453196452287,
	"longitude": 100.22372277,
	"latitude": 34.48048458
}, {
	"unid": 4465,
	"punid": 4398,
	"pathunid": "-1,48,49,51333,4398,4465",
	"type": 5,
	"name": "玉树藏族自治州",
	"rank": 9532,
	"pathtext": "根地理信息,亚洲,中国,西区,青海省,玉树藏族自治州",
	"ename": "YuShuZangZuZiZhiZhou",
	"createdate": 1453196452287,
	"longitude": 97.01331614,
	"latitude": 33.00623991
}, {
	"unid": 4466,
	"punid": 4398,
	"pathunid": "-1,48,49,51333,4398,4466",
	"type": 5,
	"name": "海南藏族自治州",
	"rank": 89096,
	"pathtext": "根地理信息,亚洲,中国,西区,青海省,海南藏族自治州",
	"ename": "HaiNanZangZuZiZhiZhou",
	"createdate": 1453196452287,
	"longitude": 100.62406609,
	"latitude": 36.2843638
}, {
	"unid": 4467,
	"punid": 4376,
	"pathunid": "-1,48,49,51332,4376,4467",
	"type": 5,
	"name": "萍乡市",
	"rank": 12715,
	"pathtext": "根地理信息,亚洲,中国,南区,江西省,萍乡市",
	"ename": "PingXiangShi",
	"createdate": 1453196452287,
	"longitude": 113.85991703,
	"latitude": 27.63954422
}, {
	"unid": 4468,
	"punid": 4376,
	"pathunid": "-1,48,49,51332,4376,4468",
	"type": 5,
	"name": "景德镇市",
	"rank": 57670,
	"pathtext": "根地理信息,亚洲,中国,南区,江西省,景德镇市",
	"ename": "JingDeZhenShi",
	"createdate": 1453196452287,
	"longitude": 117.18652263,
	"latitude": 29.30356277
}, {
	"unid": 4469,
	"punid": 4376,
	"pathunid": "-1,48,49,51332,4376,4469",
	"type": 5,
	"name": "九江市",
	"rank": 74900,
	"pathtext": "根地理信息,亚洲,中国,南区,江西省,九江市",
	"ename": "JiuJiangShi",
	"createdate": 1453196452287,
	"longitude": 115.99984802,
	"latitude": 29.71963953
}, {
	"unid": 4470,
	"punid": 4376,
	"pathunid": "-1,48,49,51332,4376,4470",
	"type": 5,
	"name": "南昌市",
	"rank": 50261,
	"pathtext": "根地理信息,亚洲,中国,南区,江西省,南昌市",
	"ename": "NanChangShi",
	"createdate": 1453196452287,
	"longitude": 115.89352755,
	"latitude": 28.689578
}, {
	"unid": 4471,
	"punid": 4376,
	"pathunid": "-1,48,49,51332,4376,4471",
	"type": 5,
	"name": "抚州市",
	"rank": 80350,
	"pathtext": "根地理信息,亚洲,中国,南区,江西省,抚州市",
	"ename": "FuZhouShi",
	"createdate": 1453196452287,
	"longitude": 116.36091887,
	"latitude": 27.95454517
}, {
	"unid": 4472,
	"punid": 4376,
	"pathunid": "-1,48,49,51332,4376,4472",
	"type": 5,
	"name": "上饶市",
	"rank": 97327,
	"pathtext": "根地理信息,亚洲,中国,南区,江西省,上饶市",
	"ename": "ShangRaoShi",
	"createdate": 1453196452287,
	"longitude": 117.95546388,
	"latitude": 28.45762255
}, {
	"unid": 4473,
	"punid": 4376,
	"pathunid": "-1,48,49,51332,4376,4473",
	"type": 5,
	"name": "吉安市",
	"rank": 9845,
	"pathtext": "根地理信息,亚洲,中国,南区,江西省,吉安市",
	"ename": "JiAnShi",
	"createdate": 1453196452287,
	"longitude": 114.99203871,
	"latitude": 27.11384765
}, {
	"unid": 4474,
	"punid": 4376,
	"pathunid": "-1,48,49,51332,4376,4474",
	"type": 5,
	"name": "宜春市",
	"rank": 69344,
	"pathtext": "根地理信息,亚洲,中国,南区,江西省,宜春市",
	"ename": "YiChunShi",
	"createdate": 1453196452287,
	"longitude": 114.40003867,
	"latitude": 27.8111299
}, {
	"unid": 4475,
	"punid": 4376,
	"pathunid": "-1,48,49,51332,4376,4475",
	"type": 5,
	"name": "新余市",
	"rank": 91871,
	"pathtext": "根地理信息,亚洲,中国,南区,江西省,新余市",
	"ename": "XinYuShi",
	"createdate": 1453196452287,
	"longitude": 114.94711742,
	"latitude": 27.82232156
}, {
	"unid": 4476,
	"punid": 4376,
	"pathunid": "-1,48,49,51332,4376,4476",
	"type": 5,
	"name": "赣州市",
	"rank": 17282,
	"pathtext": "根地理信息,亚洲,中国,南区,江西省,赣州市",
	"ename": "GanZhouShi",
	"createdate": 1453196452287,
	"longitude": 114.93590908,
	"latitude": 25.84529554
}, {
	"unid": 4477,
	"punid": 4376,
	"pathunid": "-1,48,49,51332,4376,4477",
	"type": 5,
	"name": "鹰潭市",
	"rank": 30033,
	"pathtext": "根地理信息,亚洲,中国,南区,江西省,鹰潭市",
	"ename": "YingTanShi",
	"createdate": 1453196452287,
	"longitude": 117.03545019,
	"latitude": 28.2413096
}, {
	"unid": 4478,
	"punid": 4368,
	"pathunid": "-1,48,49,51330,4368,4478",
	"type": 5,
	"name": "驻马店市",
	"rank": 91425,
	"pathtext": "根地理信息,亚洲,中国,北区,河南省,驻马店市",
	"ename": "ZhuMaDianShi",
	"createdate": 1453196452287,
	"longitude": 114.04915355,
	"latitude": 32.98315815
}, {
	"unid": 4479,
	"punid": 4368,
	"pathunid": "-1,48,49,51330,4368,4479",
	"type": 5,
	"name": "郑州市",
	"rank": 92701,
	"pathtext": "根地理信息,亚洲,中国,北区,河南省,郑州市",
	"ename": "ZhengZhouShi",
	"createdate": 1453196452287,
	"longitude": 113.64964385,
	"latitude": 34.75661006
}, {
	"unid": 4480,
	"punid": 4368,
	"pathunid": "-1,48,49,51330,4368,4480",
	"type": 5,
	"name": "洛阳市",
	"rank": 64991,
	"pathtext": "根地理信息,亚洲,中国,北区,河南省,洛阳市",
	"ename": "LuoYangShi",
	"createdate": 1453196452287,
	"longitude": 112.44752477,
	"latitude": 34.65736782
}, {
	"unid": 4481,
	"punid": 4368,
	"pathunid": "-1,48,49,51330,4368,4481",
	"type": 5,
	"name": "开封市",
	"rank": 16944,
	"pathtext": "根地理信息,亚洲,中国,北区,河南省,开封市",
	"ename": "KaiFengShi",
	"createdate": 1453196452287,
	"longitude": 114.35164212,
	"latitude": 34.80185418
}, {
	"unid": 4482,
	"punid": 4368,
	"pathunid": "-1,48,49,51330,4368,4482",
	"type": 5,
	"name": "鹤壁市",
	"rank": 87936,
	"pathtext": "根地理信息,亚洲,中国,北区,河南省,鹤壁市",
	"ename": "HeBiShi",
	"createdate": 1453196452287,
	"longitude": 114.29776984,
	"latitude": 35.75542587
}, {
	"unid": 4483,
	"punid": 4368,
	"pathunid": "-1,48,49,51330,4368,4483",
	"type": 5,
	"name": "安阳市",
	"rank": 35608,
	"pathtext": "根地理信息,亚洲,中国,北区,河南省,安阳市",
	"ename": "AnYangShi",
	"createdate": 1453196452287,
	"longitude": 114.35180651,
	"latitude": 36.11026672
}, {
	"unid": 4484,
	"punid": 4368,
	"pathunid": "-1,48,49,51330,4368,4484",
	"type": 5,
	"name": "平顶山市",
	"rank": 35875,
	"pathtext": "根地理信息,亚洲,中国,北区,河南省,平顶山市",
	"ename": "PingDingShanShi",
	"createdate": 1453196452287,
	"longitude": 113.30084898,
	"latitude": 33.74530146
}, {
	"unid": 4485,
	"punid": 4368,
	"pathunid": "-1,48,49,51330,4368,4485",
	"type": 5,
	"name": "焦作市",
	"rank": 83720,
	"pathtext": "根地理信息,亚洲,中国,北区,河南省,焦作市",
	"ename": "JiaoZuoShi",
	"createdate": 1453196452287,
	"longitude": 113.21183588,
	"latitude": 35.23460755
}, {
	"unid": 4486,
	"punid": 4368,
	"pathunid": "-1,48,49,51330,4368,4486",
	"type": 5,
	"name": "新乡市",
	"rank": 99218,
	"pathtext": "根地理信息,亚洲,中国,北区,河南省,新乡市",
	"ename": "XinXiangShi",
	"createdate": 1453196452287,
	"longitude": 113.91269016,
	"latitude": 35.30725756
}, {
	"unid": 4487,
	"punid": 4368,
	"pathunid": "-1,48,49,51330,4368,4487",
	"type": 5,
	"name": "漯河市",
	"rank": 78397,
	"pathtext": "根地理信息,亚洲,中国,北区,河南省,漯河市",
	"ename": "LuoHeShi",
	"createdate": 1453196452287,
	"longitude": 114.0460614,
	"latitude": 33.57627869
}, {
	"unid": 4488,
	"punid": 4368,
	"pathunid": "-1,48,49,51330,4368,4488",
	"type": 5,
	"name": "濮阳市",
	"rank": 78444,
	"pathtext": "根地理信息,亚洲,中国,北区,河南省,濮阳市",
	"ename": "PuYangShi",
	"createdate": 1453196452287,
	"longitude": 115.02662744,
	"latitude": 35.75329789
}, {
	"unid": 4489,
	"punid": 4368,
	"pathunid": "-1,48,49,51330,4368,4489",
	"type": 5,
	"name": "济源市",
	"rank": 95053,
	"pathtext": "根地理信息,亚洲,中国,北区,河南省,济源市",
	"ename": "JiYuanShi",
	"createdate": 1453196452287,
	"longitude": 112.40526797,
	"latitude": 35.10536456
}, {
	"unid": 4490,
	"punid": 4368,
	"pathunid": "-1,48,49,51330,4368,4490",
	"type": 5,
	"name": "许昌市",
	"rank": 12843,
	"pathtext": "根地理信息,亚洲,中国,北区,河南省,许昌市",
	"ename": "XuChangShi",
	"createdate": 1453196452287,
	"longitude": 113.83531246,
	"latitude": 34.02673959
}, {
	"unid": 4491,
	"punid": 4368,
	"pathunid": "-1,48,49,51330,4368,4491",
	"type": 5,
	"name": "南阳市",
	"rank": 81942,
	"pathtext": "根地理信息,亚洲,中国,北区,河南省,南阳市",
	"ename": "NanYangShi",
	"createdate": 1453196452287,
	"longitude": 112.5428419,
	"latitude": 33.01141957
}, {
	"unid": 4492,
	"punid": 4368,
	"pathunid": "-1,48,49,51330,4368,4492",
	"type": 5,
	"name": "三门峡市",
	"rank": 72097,
	"pathtext": "根地理信息,亚洲,中国,北区,河南省,三门峡市",
	"ename": "SanMenXiaShi",
	"createdate": 1453196452287,
	"longitude": 111.18126209,
	"latitude": 34.78331994
}, {
	"unid": 4493,
	"punid": 4368,
	"pathunid": "-1,48,49,51330,4368,4493",
	"type": 5,
	"name": "周口市",
	"rank": 64926,
	"pathtext": "根地理信息,亚洲,中国,北区,河南省,周口市",
	"ename": "ZhouKouShi",
	"createdate": 1453196452287,
	"longitude": 114.65410194,
	"latitude": 33.62374082
}, {
	"unid": 4494,
	"punid": 4368,
	"pathunid": "-1,48,49,51330,4368,4494",
	"type": 5,
	"name": "商丘市",
	"rank": 82794,
	"pathtext": "根地理信息,亚洲,中国,北区,河南省,商丘市",
	"ename": "ShangQiuShi",
	"createdate": 1453196452287,
	"longitude": 115.64188569,
	"latitude": 34.43858864
}, {
	"unid": 4495,
	"punid": 4368,
	"pathunid": "-1,48,49,51330,4368,4495",
	"type": 5,
	"name": "信阳市",
	"rank": 94854,
	"pathtext": "根地理信息,亚洲,中国,北区,河南省,信阳市",
	"ename": "ShenYangShi",
	"createdate": 1453196452287,
	"longitude": 114.08549099,
	"latitude": 32.12858231
}, {
	"unid": 4496,
	"punid": 4399,
	"pathunid": "-1,48,49,51333,4399,4496",
	"type": 5,
	"name": "吴忠市",
	"rank": 45193,
	"pathtext": "根地理信息,亚洲,中国,西区,宁夏回族自治区,吴忠市",
	"ename": "WuZhongShi",
	"createdate": 1453196452287,
	"longitude": 106.2082542,
	"latitude": 37.993561
}, {
	"unid": 4497,
	"punid": 4399,
	"pathunid": "-1,48,49,51333,4399,4497",
	"type": 5,
	"name": "中卫市",
	"rank": 81052,
	"pathtext": "根地理信息,亚洲,中国,西区,宁夏回族自治区,中卫市",
	"ename": "ZhongWeiShi",
	"createdate": 1453196452287,
	"longitude": 105.1967542,
	"latitude": 37.52112419
}, {
	"unid": 4498,
	"punid": 4399,
	"pathunid": "-1,48,49,51333,4399,4498",
	"type": 5,
	"name": "固原市",
	"rank": 19571,
	"pathtext": "根地理信息,亚洲,中国,西区,宁夏回族自治区,固原市",
	"ename": "GuYuanShi",
	"createdate": 1453196452287,
	"longitude": 106.285268,
	"latitude": 36.02152348
}, {
	"unid": 4499,
	"punid": 4399,
	"pathunid": "-1,48,49,51333,4399,4499",
	"type": 5,
	"name": "银川市",
	"rank": 36144,
	"pathtext": "根地理信息,亚洲,中国,西区,宁夏回族自治区,银川市",
	"ename": "YinChuanShi",
	"createdate": 1453196452287,
	"longitude": 106.20647861,
	"latitude": 38.50262101
}, {
	"unid": 4500,
	"punid": 4399,
	"pathunid": "-1,48,49,51333,4399,4500",
	"type": 5,
	"name": "石嘴山市",
	"rank": 25959,
	"pathtext": "根地理信息,亚洲,中国,西区,宁夏回族自治区,石嘴山市",
	"ename": "ShiZuiShanShi",
	"createdate": 1453196452287,
	"longitude": 106.3793372,
	"latitude": 39.02022328
}, {
	"unid": 4501,
	"punid": 4400,
	"pathunid": "-1,48,49,51332,4400,4501",
	"type": 5,
	"name": "离岛",
	"rank": 29830,
	"pathtext": "根地理信息,亚洲,中国,南区,澳门特别行政区,离岛",
	"ename": "LiDao",
	"createdate": 1453196452287,
	"longitude": 113.5575191,
	"latitude": 22.20411799
}, {
	"unid": 4502,
	"punid": 4400,
	"pathunid": "-1,48,49,51332,4400,4502",
	"type": 5,
	"name": "澳门半岛",
	"rank": 6301,
	"pathtext": "根地理信息,亚洲,中国,南区,澳门特别行政区,澳门半岛",
	"ename": "AoMenBanDao",
	"createdate": 1453196452287,
	"longitude": 113.56643234,
	"latitude": 22.19500416
}, {
	"unid": 4503,
	"punid": 4363,
	"pathunid": "-1,48,49,51331,4363,4503",
	"type": 5,
	"name": "嘉兴市",
	"rank": 12177,
	"pathtext": "根地理信息,亚洲,中国,东区,浙江省,嘉兴市",
	"ename": "JiaXingShi",
	"createdate": 1453196452287,
	"longitude": 120.7604277,
	"latitude": 30.77399224
}, {
	"unid": 4504,
	"punid": 4363,
	"pathunid": "-1,48,49,51331,4363,4504",
	"type": 5,
	"name": "温州市",
	"rank": 43832,
	"pathtext": "根地理信息,亚洲,中国,东区,浙江省,温州市",
	"ename": "WenZhouShi",
	"createdate": 1453196452287,
	"longitude": 120.69063473,
	"latitude": 28.00283759
}, {
	"unid": 4505,
	"punid": 4363,
	"pathunid": "-1,48,49,51331,4363,4505",
	"type": 5,
	"name": "金华市",
	"rank": 20645,
	"pathtext": "根地理信息,亚洲,中国,东区,浙江省,金华市",
	"ename": "JinHuaShi",
	"createdate": 1453196452287,
	"longitude": 119.6525757,
	"latitude": 29.10289911
}, {
	"unid": 4506,
	"punid": 4363,
	"pathunid": "-1,48,49,51331,4363,4506",
	"type": 5,
	"name": "绍兴市",
	"rank": 20940,
	"pathtext": "根地理信息,亚洲,中国,东区,浙江省,绍兴市",
	"ename": "ShaoXingShi",
	"createdate": 1453196452287,
	"longitude": 120.59246739,
	"latitude": 30.00236458
}, {
	"unid": 4507,
	"punid": 4363,
	"pathunid": "-1,48,49,51331,4363,4507",
	"type": 5,
	"name": "湖州市",
	"rank": 29277,
	"pathtext": "根地理信息,亚洲,中国,东区,浙江省,湖州市",
	"ename": "HuZhouShi",
	"createdate": 1453196452287,
	"longitude": 120.13724316,
	"latitude": 30.87792516
}, {
	"unid": 4508,
	"punid": 4363,
	"pathunid": "-1,48,49,51331,4363,4508",
	"type": 5,
	"name": "宁波市",
	"rank": 23782,
	"pathtext": "根地理信息,亚洲,中国,东区,浙江省,宁波市",
	"ename": "NingBoShi",
	"createdate": 1453196452287,
	"longitude": 121.57900597,
	"latitude": 29.88525897
}, {
	"unid": 4509,
	"punid": 4363,
	"pathunid": "-1,48,49,51331,4363,4509",
	"type": 5,
	"name": "杭州市",
	"rank": 33350,
	"pathtext": "根地理信息,亚洲,中国,东区,浙江省,杭州市",
	"ename": "HangZhouShi",
	"createdate": 1453196452287,
	"longitude": 120.21937542,
	"latitude": 30.25924446
}, {
	"unid": 4510,
	"punid": 4363,
	"pathunid": "-1,48,49,51331,4363,4510",
	"type": 5,
	"name": "舟山市",
	"rank": 69632,
	"pathtext": "根地理信息,亚洲,中国,东区,浙江省,舟山市",
	"ename": "ZhouShanShi",
	"createdate": 1453196452287,
	"longitude": 122.1698721,
	"latitude": 30.0360103
}, {
	"unid": 4511,
	"punid": 4363,
	"pathunid": "-1,48,49,51331,4363,4511",
	"type": 5,
	"name": "台州市",
	"rank": 88289,
	"pathtext": "根地理信息,亚洲,中国,东区,浙江省,台州市",
	"ename": "TaiZhouShi",
	"createdate": 1453196452287,
	"longitude": 121.44061294,
	"latitude": 28.66828329
}, {
	"unid": 4512,
	"punid": 4363,
	"pathunid": "-1,48,49,51331,4363,4512",
	"type": 5,
	"name": "衢州市",
	"rank": 41229,
	"pathtext": "根地理信息,亚洲,中国,东区,浙江省,衢州市",
	"ename": "QuZhouShi",
	"createdate": 1453196452287,
	"longitude": 118.87584165,
	"latitude": 28.95691045
}, {
	"unid": 4513,
	"punid": 4363,
	"pathunid": "-1,48,49,51331,4363,4513",
	"type": 5,
	"name": "丽水市",
	"rank": 37739,
	"pathtext": "根地理信息,亚洲,中国,东区,浙江省,丽水市",
	"ename": "LiShuiShi",
	"createdate": 1453196452287,
	"longitude": 119.92957584,
	"latitude": 28.45629955
}, {
	"unid": 4514,
	"punid": 4362,
	"pathunid": "-1,48,49,51333,4362,4514",
	"type": 5,
	"name": "克拉玛依市",
	"rank": 61313,
	"pathtext": "根地理信息,亚洲,中国,西区,新疆维吾尔自治区,克拉玛依市",
	"ename": "KeLaMaYiShi",
	"createdate": 1453196452287,
	"longitude": 84.88118019,
	"latitude": 45.59433107
}, {
	"unid": 4515,
	"punid": 4362,
	"pathunid": "-1,48,49,51333,4362,4515",
	"type": 5,
	"name": "乌鲁木齐市",
	"rank": 72433,
	"pathtext": "根地理信息,亚洲,中国,西区,新疆维吾尔自治区,乌鲁木齐市",
	"ename": "WuLuMuQiShi",
	"createdate": 1453196452287,
	"longitude": 87.56498774,
	"latitude": 43.84038035
}, {
	"unid": 4516,
	"punid": 4362,
	"pathunid": "-1,48,49,51333,4362,4516",
	"type": 5,
	"name": "伊犁哈萨克自治州",
	"rank": 30104,
	"pathtext": "根地理信息,亚洲,中国,西区,新疆维吾尔自治区,伊犁哈萨克自治州",
	"ename": "YiLiHaSaKeZiZhiZhou",
	"createdate": 1453196452287,
	"longitude": 81.29785353,
	"latitude": 43.9222481
}, {
	"unid": 4517,
	"punid": 4362,
	"pathunid": "-1,48,49,51333,4362,4517",
	"type": 5,
	"name": "阿勒泰地区",
	"rank": 58869,
	"pathtext": "根地理信息,亚洲,中国,西区,新疆维吾尔自治区,阿勒泰地区",
	"ename": "ALeTaiDiQu",
	"createdate": 1453196452287,
	"longitude": 88.13791549,
	"latitude": 47.83974449
}, {
	"unid": 4518,
	"punid": 4362,
	"pathunid": "-1,48,49,51333,4362,4518",
	"type": 5,
	"name": "塔城地区",
	"rank": 78633,
	"pathtext": "根地理信息,亚洲,中国,西区,新疆维吾尔自治区,塔城地区",
	"ename": "TaChengDiQu",
	"createdate": 1453196452287,
	"longitude": 82.97488058,
	"latitude": 46.75868363
}, {
	"unid": 4519,
	"punid": 4362,
	"pathunid": "-1,48,49,51333,4362,4519",
	"type": 5,
	"name": "昌吉回族自治州",
	"rank": 64781,
	"pathtext": "根地理信息,亚洲,中国,西区,新疆维吾尔自治区,昌吉回族自治州",
	"ename": "ChangJiHuiZuZiZhiZhou",
	"createdate": 1453196452287,
	"longitude": 87.29603813,
	"latitude": 44.0070579
}, {
	"unid": 4520,
	"punid": 4362,
	"pathunid": "-1,48,49,51333,4362,4520",
	"type": 5,
	"name": "博尔塔拉蒙古自治州",
	"rank": 61652,
	"pathtext": "根地理信息,亚洲,中国,西区,新疆维吾尔自治区,博尔塔拉蒙古自治州",
	"ename": "BoErTaLaMengGuZiZhiZhou",
	"createdate": 1453196452287,
	"longitude": 82.05243627,
	"latitude": 44.91365137
}, {
	"unid": 4521,
	"punid": 4362,
	"pathunid": "-1,48,49,51333,4362,4521",
	"type": 5,
	"name": "巴音郭楞蒙古自治州",
	"rank": 87021,
	"pathtext": "根地理信息,亚洲,中国,西区,新疆维吾尔自治区,巴音郭楞蒙古自治州",
	"ename": "BaYinGuoLengMengGuZiZhiZhou",
	"createdate": 1453196452287,
	"longitude": 86.12168836,
	"latitude": 41.7713622
}, {
	"unid": 4522,
	"punid": 4362,
	"pathunid": "-1,48,49,51333,4362,4522",
	"type": 5,
	"name": "阿克苏地区",
	"rank": 25276,
	"pathtext": "根地理信息,亚洲,中国,西区,新疆维吾尔自治区,阿克苏地区",
	"ename": "AKeSuDiQu",
	"createdate": 1453196452287,
	"longitude": 80.26984618,
	"latitude": 41.1717309
}, {
	"unid": 4523,
	"punid": 4362,
	"pathunid": "-1,48,49,51333,4362,4523",
	"type": 5,
	"name": "克孜勒苏柯尔克孜自治州",
	"rank": 56679,
	"pathtext": "根地理信息,亚洲,中国,西区,新疆维吾尔自治区,克孜勒苏柯尔克孜自治州",
	"ename": "KeZiLeSuKeErKeZiZiZhiZhou",
	"createdate": 1453196452287,
	"longitude": 76.13756448,
	"latitude": 39.75034558
}, {
	"unid": 4524,
	"punid": 4362,
	"pathunid": "-1,48,49,51333,4362,4524",
	"type": 5,
	"name": "喀什地区",
	"rank": 36539,
	"pathtext": "根地理信息,亚洲,中国,西区,新疆维吾尔自治区,喀什地区",
	"ename": "KaShiDiQu",
	"createdate": 1453196452287,
	"longitude": 75.99297327,
	"latitude": 39.47062719
}, {
	"unid": 4525,
	"punid": 4362,
	"pathunid": "-1,48,49,51333,4362,4525",
	"type": 5,
	"name": "和田地区",
	"rank": 56166,
	"pathtext": "根地理信息,亚洲,中国,西区,新疆维吾尔自治区,和田地区",
	"ename": "HeTianDiQu",
	"createdate": 1453196452287,
	"longitude": 79.93023864,
	"latitude": 37.11677449
}, {
	"unid": 4526,
	"punid": 4362,
	"pathunid": "-1,48,49,51333,4362,4526",
	"type": 5,
	"name": "吐鲁番地区",
	"rank": 54757,
	"pathtext": "根地理信息,亚洲,中国,西区,新疆维吾尔自治区,吐鲁番地区",
	"ename": "TuLuFanDiQu",
	"createdate": 1453196452287,
	"longitude": 89.18159487,
	"latitude": 42.96047002
}, {
	"unid": 4527,
	"punid": 4362,
	"pathunid": "-1,48,49,51333,4362,4527",
	"type": 5,
	"name": "哈密地区",
	"rank": 33448,
	"pathtext": "根地理信息,亚洲,中国,西区,新疆维吾尔自治区,哈密地区",
	"ename": "HaMiDiQu",
	"createdate": 1453196452287,
	"longitude": 93.52835509,
	"latitude": 42.85859633
}, {
	"unid": 4528,
	"punid": 4362,
	"pathunid": "-1,48,49,51333,4362,4528",
	"type": 5,
	"name": "五家渠市",
	"rank": 57856,
	"pathtext": "根地理信息,亚洲,中国,西区,新疆维吾尔自治区,五家渠市",
	"ename": "WuJiaQuShi",
	"createdate": 1453196452287,
	"longitude": 87.56544898,
	"latitude": 44.36889948
}, {
	"unid": 4529,
	"punid": 4362,
	"pathunid": "-1,48,49,51333,4362,4529",
	"type": 5,
	"name": "石河子市",
	"rank": 39738,
	"pathtext": "根地理信息,亚洲,中国,西区,新疆维吾尔自治区,石河子市",
	"ename": "ShiHeZiShi",
	"createdate": 1453196452287,
	"longitude": 86.04186492,
	"latitude": 44.30825898
}, {
	"unid": 4530,
	"punid": 4362,
	"pathunid": "-1,48,49,51333,4362,4530",
	"type": 5,
	"name": "阿拉尔市",
	"rank": 10773,
	"pathtext": "根地理信息,亚洲,中国,西区,新疆维吾尔自治区,阿拉尔市",
	"ename": "ALaErShi",
	"createdate": 1453196452287,
	"longitude": 81.29173655,
	"latitude": 40.61568001
}, {
	"unid": 4531,
	"punid": 4362,
	"pathunid": "-1,48,49,51333,4362,4531",
	"type": 5,
	"name": "图木舒克市",
	"rank": 48694,
	"pathtext": "根地理信息,亚洲,中国,西区,新疆维吾尔自治区,图木舒克市",
	"ename": "TuMuShuKeShi",
	"createdate": 1453196452287,
	"longitude": 79.19815511,
	"latitude": 39.88922288
}, {
	"unid": 4532,
	"punid": 4401,
	"pathunid": "-1,48,49,51330,4401,4532",
	"type": 5,
	"name": "延边朝鲜族自治州",
	"rank": 77586,
	"pathtext": "根地理信息,亚洲,中国,北区,吉林省,延边朝鲜族自治州",
	"ename": "YanBianChaoXianZuZiZhiZhou",
	"createdate": 1453196452287,
	"longitude": 129.48590196,
	"latitude": 42.8964136
}, {
	"unid": 4533,
	"punid": 4401,
	"pathunid": "-1,48,49,51330,4401,4533",
	"type": 5,
	"name": "长春市",
	"rank": 37549,
	"pathtext": "根地理信息,亚洲,中国,北区,吉林省,长春市",
	"ename": "ChangChunShi",
	"createdate": 1453196452287,
	"longitude": 125.31364243,
	"latitude": 43.89833761
}, {
	"unid": 4534,
	"punid": 4401,
	"pathunid": "-1,48,49,51330,4401,4534",
	"type": 5,
	"name": "松原市",
	"rank": 34183,
	"pathtext": "根地理信息,亚洲,中国,北区,吉林省,松原市",
	"ename": "SongYuanShi",
	"createdate": 1453196452287,
	"longitude": 124.83299453,
	"latitude": 45.13604897
}, {
	"unid": 4535,
	"punid": 4401,
	"pathunid": "-1,48,49,51330,4401,4535",
	"type": 5,
	"name": "白城市",
	"rank": 23541,
	"pathtext": "根地理信息,亚洲,中国,北区,吉林省,白城市",
	"ename": "BaiChengShi",
	"createdate": 1453196452287,
	"longitude": 122.84077668,
	"latitude": 45.62108628
}, {
	"unid": 4536,
	"punid": 4401,
	"pathunid": "-1,48,49,51330,4401,4536",
	"type": 5,
	"name": "通化市",
	"rank": 34120,
	"pathtext": "根地理信息,亚洲,中国,北区,吉林省,通化市",
	"ename": "TongHuaShi",
	"createdate": 1453196452287,
	"longitude": 125.94265014,
	"latitude": 41.73639713
}, {
	"unid": 4537,
	"punid": 4401,
	"pathunid": "-1,48,49,51330,4401,4537",
	"type": 5,
	"name": "白山市",
	"rank": 52685,
	"pathtext": "根地理信息,亚洲,中国,北区,吉林省,白山市",
	"ename": "BaiShanShi",
	"createdate": 1453196452287,
	"longitude": 126.43579768,
	"latitude": 41.9458594
}, {
	"unid": 4538,
	"punid": 4401,
	"pathunid": "-1,48,49,51330,4401,4538",
	"type": 5,
	"name": "吉林市",
	"rank": 16700,
	"pathtext": "根地理信息,亚洲,中国,北区,吉林省,吉林市",
	"ename": "JiLinShi",
	"createdate": 1453196452287,
	"longitude": 126.56454399,
	"latitude": 43.87198833
}, {
	"unid": 4539,
	"punid": 4401,
	"pathunid": "-1,48,49,51330,4401,4539",
	"type": 5,
	"name": "辽源市",
	"rank": 32129,
	"pathtext": "根地理信息,亚洲,中国,北区,吉林省,辽源市",
	"ename": "LiaoYuanShi",
	"createdate": 1453196452287,
	"longitude": 125.13368605,
	"latitude": 42.92330262
}, {
	"unid": 4540,
	"punid": 4401,
	"pathunid": "-1,48,49,51330,4401,4540",
	"type": 5,
	"name": "四平市",
	"rank": 23395,
	"pathtext": "根地理信息,亚洲,中国,北区,吉林省,四平市",
	"ename": "SiPingShi",
	"createdate": 1453196452287,
	"longitude": 124.39138207,
	"latitude": 43.1755247
}, {
	"unid": 4541,
	"punid": 4364,
	"pathunid": "-1,48,49,51331,4364,4541",
	"type": 5,
	"name": "蚌埠市",
	"rank": 82192,
	"pathtext": "根地理信息,亚洲,中国,东区,安徽省,蚌埠市",
	"ename": "BengBuShi",
	"createdate": 1453196452287,
	"longitude": 117.35707987,
	"latitude": 32.92949891
}, {
	"unid": 4542,
	"punid": 4364,
	"pathunid": "-1,48,49,51331,4364,4542",
	"type": 5,
	"name": "淮南市",
	"rank": 6375,
	"pathtext": "根地理信息,亚洲,中国,东区,安徽省,淮南市",
	"ename": "HuaiNanShi",
	"createdate": 1453196452287,
	"longitude": 117.01863886,
	"latitude": 32.64281182
}, {
	"unid": 4543,
	"punid": 4364,
	"pathunid": "-1,48,49,51331,4364,4543",
	"type": 5,
	"name": "合肥市",
	"rank": 59710,
	"pathtext": "根地理信息,亚洲,中国,东区,安徽省,合肥市",
	"ename": "HeFeiShi",
	"createdate": 1453196452287,
	"longitude": 117.28269909,
	"latitude": 31.86694226
}, {
	"unid": 4544,
	"punid": 4364,
	"pathunid": "-1,48,49,51331,4364,4544",
	"type": 5,
	"name": "芜湖市",
	"rank": 71237,
	"pathtext": "根地理信息,亚洲,中国,东区,安徽省,芜湖市",
	"ename": "WuHuShi",
	"createdate": 1453196452287,
	"longitude": 118.38410842,
	"latitude": 31.36601979
}, {
	"unid": 4545,
	"punid": 4364,
	"pathunid": "-1,48,49,51331,4364,4545",
	"type": 5,
	"name": "安庆市",
	"rank": 70394,
	"pathtext": "根地理信息,亚洲,中国,东区,安徽省,安庆市",
	"ename": "AnQingShi",
	"createdate": 1453196452287,
	"longitude": 117.05873877,
	"latitude": 30.53789782
}, {
	"unid": 4546,
	"punid": 4364,
	"pathunid": "-1,48,49,51331,4364,4546",
	"type": 5,
	"name": "马鞍山市",
	"rank": 94939,
	"pathtext": "根地理信息,亚洲,中国,东区,安徽省,马鞍山市",
	"ename": "MaAnShanShi",
	"createdate": 1453196452287,
	"longitude": 118.51588185,
	"latitude": 31.68852816
}, {
	"unid": 4547,
	"punid": 4364,
	"pathunid": "-1,48,49,51331,4364,4547",
	"type": 5,
	"name": "淮北市",
	"rank": 44647,
	"pathtext": "根地理信息,亚洲,中国,东区,安徽省,淮北市",
	"ename": "HuaiBeiShi",
	"createdate": 1453196452287,
	"longitude": 116.79144743,
	"latitude": 33.96002331
}, {
	"unid": 4548,
	"punid": 4364,
	"pathunid": "-1,48,49,51331,4364,4548",
	"type": 5,
	"name": "铜陵市",
	"rank": 99483,
	"pathtext": "根地理信息,亚洲,中国,东区,安徽省,铜陵市",
	"ename": "TongLingShi",
	"createdate": 1453196452287,
	"longitude": 117.81942873,
	"latitude": 30.94092969
}, {
	"unid": 4549,
	"punid": 4364,
	"pathunid": "-1,48,49,51331,4364,4549",
	"type": 5,
	"name": "宿州市",
	"rank": 98673,
	"pathtext": "根地理信息,亚洲,中国,东区,安徽省,宿州市",
	"ename": "SuZhouShi",
	"createdate": 1453196452287,
	"longitude": 116.98869241,
	"latitude": 33.63677239
}, {
	"unid": 4550,
	"punid": 4364,
	"pathunid": "-1,48,49,51331,4364,4550",
	"type": 5,
	"name": "六安市",
	"rank": 42102,
	"pathtext": "根地理信息,亚洲,中国,东区,安徽省,六安市",
	"ename": "LuAnShi",
	"createdate": 1453196452287,
	"longitude": 116.50525268,
	"latitude": 31.75555836
}, {
	"unid": 4551,
	"punid": 4364,
	"pathunid": "-1,48,49,51331,4364,4551",
	"type": 5,
	"name": "滁州市",
	"rank": 40667,
	"pathtext": "根地理信息,亚洲,中国,东区,安徽省,滁州市",
	"ename": "ChuZhouShi",
	"createdate": 1453196452287,
	"longitude": 118.32457035,
	"latitude": 32.3173506
}, {
	"unid": 4552,
	"punid": 4364,
	"pathunid": "-1,48,49,51331,4364,4552",
	"type": 5,
	"name": "黄山市",
	"rank": 3461,
	"pathtext": "根地理信息,亚洲,中国,东区,安徽省,黄山市",
	"ename": "HuangShanShi",
	"createdate": 1453196452287,
	"longitude": 118.29356963,
	"latitude": 29.73443486
}, {
	"unid": 4553,
	"punid": 4364,
	"pathunid": "-1,48,49,51331,4364,4553",
	"type": 5,
	"name": "阜阳市",
	"rank": 10521,
	"pathtext": "根地理信息,亚洲,中国,东区,安徽省,阜阳市",
	"ename": "FuYangShi",
	"createdate": 1453196452287,
	"longitude": 115.82093226,
	"latitude": 32.90121133
}, {
	"unid": 4554,
	"punid": 4364,
	"pathunid": "-1,48,49,51331,4364,4554",
	"type": 5,
	"name": "宣城市",
	"rank": 16858,
	"pathtext": "根地理信息,亚洲,中国,东区,安徽省,宣城市",
	"ename": "XuanChengShi",
	"createdate": 1453196452287,
	"longitude": 118.75209631,
	"latitude": 30.95164235
}, {
	"unid": 4555,
	"punid": 4364,
	"pathunid": "-1,48,49,51331,4364,4555",
	"type": 5,
	"name": "亳州市",
	"rank": 60686,
	"pathtext": "根地理信息,亚洲,中国,东区,安徽省,亳州市",
	"ename": "BoZhouShi",
	"createdate": 1453196452287,
	"longitude": 115.78792825,
	"latitude": 33.87121057
}, {
	"unid": 4556,
	"punid": 4364,
	"pathunid": "-1,48,49,51331,4364,4556",
	"type": 5,
	"name": "池州市",
	"rank": 83407,
	"pathtext": "根地理信息,亚洲,中国,东区,安徽省,池州市",
	"ename": "ChiZhouShi",
	"createdate": 1453196452287,
	"longitude": 117.49447677,
	"latitude": 30.66001925
}, {
	"unid": 4557,
	"punid": 4375,
	"pathunid": "-1,48,49,51330,4375,4557",
	"type": 5,
	"name": "呼和浩特市",
	"rank": 95719,
	"pathtext": "根地理信息,亚洲,中国,北区,内蒙古自治区,呼和浩特市",
	"ename": "HuHeHaoTeShi",
	"createdate": 1453196452287,
	"longitude": 111.66035052,
	"latitude": 40.82831887
}, {
	"unid": 4558,
	"punid": 4375,
	"pathunid": "-1,48,49,51330,4375,4558",
	"type": 5,
	"name": "包头市",
	"rank": 60911,
	"pathtext": "根地理信息,亚洲,中国,北区,内蒙古自治区,包头市",
	"ename": "BaoTouShi",
	"createdate": 1453196452287,
	"longitude": 109.84623853,
	"latitude": 40.64711943
}, {
	"unid": 4559,
	"punid": 4375,
	"pathunid": "-1,48,49,51330,4375,4559",
	"type": 5,
	"name": "乌海市",
	"rank": 88533,
	"pathtext": "根地理信息,亚洲,中国,北区,内蒙古自治区,乌海市",
	"ename": "WuHaiShi",
	"createdate": 1453196452287,
	"longitude": 106.8319991,
	"latitude": 39.68317701
}, {
	"unid": 4560,
	"punid": 4375,
	"pathunid": "-1,48,49,51330,4375,4560",
	"type": 5,
	"name": "赤峰市",
	"rank": 97400,
	"pathtext": "根地理信息,亚洲,中国,北区,内蒙古自治区,赤峰市",
	"ename": "ChiFengShi",
	"createdate": 1453196452287,
	"longitude": 118.93076119,
	"latitude": 42.29711232
}, {
	"unid": 4561,
	"punid": 4375,
	"pathunid": "-1,48,49,51330,4375,4561",
	"type": 5,
	"name": "通辽市",
	"rank": 82444,
	"pathtext": "根地理信息,亚洲,中国,北区,内蒙古自治区,通辽市",
	"ename": "TongLiaoShi",
	"createdate": 1453196452287,
	"longitude": 122.26036326,
	"latitude": 43.63375607
}, {
	"unid": 4562,
	"punid": 4375,
	"pathunid": "-1,48,49,51330,4375,4562",
	"type": 5,
	"name": "鄂尔多斯市",
	"rank": 4258,
	"pathtext": "根地理信息,亚洲,中国,北区,内蒙古自治区,鄂尔多斯市",
	"ename": "EErDuoSiShi",
	"createdate": 1453196452287,
	"longitude": 109.99370625,
	"latitude": 39.81648956
}, {
	"unid": 4563,
	"punid": 4375,
	"pathunid": "-1,48,49,51330,4375,4563",
	"type": 5,
	"name": "呼伦贝尔市",
	"rank": 69910,
	"pathtext": "根地理信息,亚洲,中国,北区,内蒙古自治区,呼伦贝尔市",
	"ename": "HuLunBeiErShi",
	"createdate": 1453196452287,
	"longitude": 119.76082179,
	"latitude": 49.20163605
}, {
	"unid": 4564,
	"punid": 4375,
	"pathunid": "-1,48,49,51330,4375,4564",
	"type": 5,
	"name": "乌兰察布市",
	"rank": 28385,
	"pathtext": "根地理信息,亚洲,中国,北区,内蒙古自治区,乌兰察布市",
	"ename": "WuLanChaBuShi",
	"createdate": 1453196452287,
	"longitude": 113.11284639,
	"latitude": 41.02236295
}, {
	"unid": 4565,
	"punid": 4375,
	"pathunid": "-1,48,49,51330,4375,4565",
	"type": 5,
	"name": "巴彦淖尔市",
	"rank": 11152,
	"pathtext": "根地理信息,亚洲,中国,北区,内蒙古自治区,巴彦淖尔市",
	"ename": "BaYanNaoErShi",
	"createdate": 1453196452287,
	"longitude": 107.42380672,
	"latitude": 40.7691799
}, {
	"unid": 4566,
	"punid": 4375,
	"pathunid": "-1,48,49,51330,4375,4566",
	"type": 5,
	"name": "锡林郭勒盟",
	"rank": 88050,
	"pathtext": "根地理信息,亚洲,中国,北区,内蒙古自治区,锡林郭勒盟",
	"ename": "XiLinGuoLeMeng",
	"createdate": 1453196452287,
	"longitude": 116.02733969,
	"latitude": 43.93970484
}, {
	"unid": 4567,
	"punid": 4375,
	"pathunid": "-1,48,49,51330,4375,4567",
	"type": 5,
	"name": "兴安盟",
	"rank": 18901,
	"pathtext": "根地理信息,亚洲,中国,北区,内蒙古自治区,兴安盟",
	"ename": "XingAnMeng",
	"createdate": 1453196452287,
	"longitude": 122.04816651,
	"latitude": 46.08375707
}, {
	"unid": 4568,
	"punid": 4375,
	"pathunid": "-1,48,49,51330,4375,4568",
	"type": 5,
	"name": "阿拉善盟",
	"rank": 82869,
	"pathtext": "根地理信息,亚洲,中国,北区,内蒙古自治区,阿拉善盟",
	"ename": "ALaShanMeng",
	"createdate": 1453196452287,
	"longitude": 105.69568287,
	"latitude": 38.84307526
}, {
	"unid": 4569,
	"punid": 250,
	"pathunid": "-1,48,49,51332,250,4569",
	"type": 5,
	"name": "连江县",
	"rank": 89058,
	"pathtext": "根地理信息,亚洲,中国,南区,台湾,连江县",
	"ename": "LienchiangCounty",
	"createdate": 1453196452287,
	"longitude": 114.21879568,
	"latitude": 22.23125699
}, {
	"unid": 4570,
	"punid": 250,
	"pathunid": "-1,48,49,51332,250,4570",
	"type": 5,
	"name": "新竹市",
	"rank": 74772,
	"pathtext": "根地理信息,亚洲,中国,南区,台湾,新竹市",
	"ename": "XinZhuShi",
	"createdate": 1453196452287,
	"longitude": 114.21879568,
	"latitude": 22.23125699
}, {
	"unid": 4571,
	"punid": 250,
	"pathunid": "-1,48,49,51332,250,4571",
	"type": 5,
	"name": "嘉义市",
	"rank": 1375,
	"pathtext": "根地理信息,亚洲,中国,南区,台湾,嘉义市",
	"ename": "JiaYiShi",
	"createdate": 1453196452287,
	"longitude": 114.21879568,
	"latitude": 22.23125699
}, {
	"unid": 4572,
	"punid": 250,
	"pathunid": "-1,48,49,51332,250,4572",
	"type": 5,
	"name": "基隆市",
	"rank": 63872,
	"pathtext": "根地理信息,亚洲,中国,南区,台湾,基隆市",
	"ename": "JiLongShi",
	"createdate": 1453196452287,
	"longitude": 114.21879568,
	"latitude": 22.23125699
}, {
	"unid": 4573,
	"punid": 250,
	"pathunid": "-1,48,49,51332,250,4573",
	"type": 5,
	"name": "新北市",
	"rank": 49036,
	"pathtext": "根地理信息,亚洲,中国,南区,台湾,新北市",
	"ename": "XinBeiShi",
	"createdate": 1453196452287,
	"longitude": 114.21879568,
	"latitude": 22.23125699
}, {
	"unid": 4574,
	"punid": 250,
	"pathunid": "-1,48,49,51332,250,4574",
	"type": 5,
	"name": "新竹县",
	"rank": 50845,
	"pathtext": "根地理信息,亚洲,中国,南区,台湾,新竹县",
	"ename": "XinZhuXian",
	"createdate": 1453196452287,
	"longitude": 114.21879568,
	"latitude": 22.23125699
}, {
	"unid": 4575,
	"punid": 250,
	"pathunid": "-1,48,49,51332,250,4575",
	"type": 5,
	"name": "桃园县",
	"rank": 81598,
	"pathtext": "根地理信息,亚洲,中国,南区,台湾,桃园县",
	"ename": "TaoYuanXian",
	"createdate": 1453196452287,
	"longitude": 114.21879568,
	"latitude": 22.23125699
}, {
	"unid": 4576,
	"punid": 250,
	"pathunid": "-1,48,49,51332,250,4576",
	"type": 5,
	"name": "宜兰县",
	"rank": 85693,
	"pathtext": "根地理信息,亚洲,中国,南区,台湾,宜兰县",
	"ename": "YiLanXian",
	"createdate": 1453196452287,
	"longitude": 114.21879568,
	"latitude": 22.23125699
}, {
	"unid": 4577,
	"punid": 250,
	"pathunid": "-1,48,49,51332,250,4577",
	"type": 5,
	"name": "苗栗县",
	"rank": 61778,
	"pathtext": "根地理信息,亚洲,中国,南区,台湾,苗栗县",
	"ename": "MiaoLiXian",
	"createdate": 1453196452287,
	"longitude": 114.21879568,
	"latitude": 22.23125699
}, {
	"unid": 4578,
	"punid": 250,
	"pathunid": "-1,48,49,51332,250,4578",
	"type": 5,
	"name": "嘉义县",
	"rank": 51720,
	"pathtext": "根地理信息,亚洲,中国,南区,台湾,嘉义县",
	"ename": "JiaYiXian",
	"createdate": 1453196452287,
	"longitude": 114.21879568,
	"latitude": 22.23125699
}, {
	"unid": 4579,
	"punid": 250,
	"pathunid": "-1,48,49,51332,250,4579",
	"type": 5,
	"name": "彰化县",
	"rank": 43390,
	"pathtext": "根地理信息,亚洲,中国,南区,台湾,彰化县",
	"ename": "ZhangHuaXian",
	"createdate": 1453196452287,
	"longitude": 114.21879568,
	"latitude": 22.23125699
}, {
	"unid": 4580,
	"punid": 250,
	"pathunid": "-1,48,49,51332,250,4580",
	"type": 5,
	"name": "云林县",
	"rank": 23094,
	"pathtext": "根地理信息,亚洲,中国,南区,台湾,云林县",
	"ename": "YunLinXian",
	"createdate": 1453196452287,
	"longitude": 114.21879568,
	"latitude": 22.23125699
}, {
	"unid": 4581,
	"punid": 250,
	"pathunid": "-1,48,49,51332,250,4581",
	"type": 5,
	"name": "屏东县",
	"rank": 75030,
	"pathtext": "根地理信息,亚洲,中国,南区,台湾,屏东县",
	"ename": "PingDongXian",
	"createdate": 1453196452287,
	"longitude": 119.30846756,
	"latitude": 26.10705674
}, {
	"unid": 4582,
	"punid": 250,
	"pathunid": "-1,48,49,51332,250,4582",
	"type": 5,
	"name": "澎湖县",
	"rank": 64533,
	"pathtext": "根地理信息,亚洲,中国,南区,台湾,澎湖县",
	"ename": "PengHuXian",
	"createdate": 1453196452287,
	"longitude": 114.21879568,
	"latitude": 22.23125699
}, {
	"unid": 4583,
	"punid": 250,
	"pathunid": "-1,48,49,51332,250,4583",
	"type": 5,
	"name": "花莲县",
	"rank": 22151,
	"pathtext": "根地理信息,亚洲,中国,南区,台湾,花莲县",
	"ename": "HuaLianXian",
	"createdate": 1453196452287,
	"longitude": 114.21879568,
	"latitude": 22.23125699
}, {
	"unid": 4584,
	"punid": 250,
	"pathunid": "-1,48,49,51332,250,4584",
	"type": 5,
	"name": "台东县",
	"rank": 12462,
	"pathtext": "根地理信息,亚洲,中国,南���,台湾,台东县",
	"ename": "TaiDongXian",
	"createdate": 1453196452287,
	"longitude": 114.21879568,
	"latitude": 22.23125699
}, {
	"unid": 4585,
	"punid": 250,
	"pathunid": "-1,48,49,51332,250,4585",
	"type": 5,
	"name": "台北市",
	"rank": 78741,
	"pathtext": "根地理信息,亚洲,中国,南区,台湾,台北市",
	"ename": "TaiBeiShi",
	"createdate": 1453196452287,
	"longitude": 121.52010881,
	"latitude": 25.06302994
}, {
	"unid": 4586,
	"punid": 250,
	"pathunid": "-1,48,49,51332,250,4586",
	"type": 5,
	"name": "高雄市",
	"rank": 88419,
	"pathtext": "根地理信息,亚洲,中国,南区,台湾,高雄市",
	"ename": "GaoXiongShi",
	"createdate": 1453196452287,
	"longitude": 114.21879568,
	"latitude": 22.23125699
}, {
	"unid": 4587,
	"punid": 250,
	"pathunid": "-1,48,49,51332,250,4587",
	"type": 5,
	"name": "台南市",
	"rank": 9086,
	"pathtext": "根地理信息,亚洲,中国,南区,台湾,台南市",
	"ename": "TaiNanShi",
	"createdate": 1453196452287,
	"longitude": 114.21879568,
	"latitude": 22.23125699
}, {
	"unid": 4588,
	"punid": 250,
	"pathunid": "-1,48,49,51332,250,4588",
	"type": 5,
	"name": "金门县",
	"rank": 47529,
	"pathtext": "根地理信息,亚洲,中国,南区,台湾,金门县",
	"ename": "JinMenXian",
	"createdate": 1453196452287,
	"longitude": 118.37977241,
	"latitude": 24.45368508
}, {
	"unid": 4589,
	"punid": 250,
	"pathunid": "-1,48,49,51332,250,4589",
	"type": 5,
	"name": "台中市",
	"rank": 19944,
	"pathtext": "根地理信息,亚洲,中国,南区,台湾,台中市",
	"ename": "TaiZhongShi",
	"createdate": 1453196452287,
	"longitude": 114.21879568,
	"latitude": 22.23125699
}, {
	"unid": 4590,
	"punid": 250,
	"pathunid": "-1,48,49,51332,250,4590",
	"type": 5,
	"name": "南投县",
	"rank": 57543,
	"pathtext": "根地理信息,亚洲,中国,南区,台湾,南投县",
	"ename": "NanTouXian",
	"createdate": 1453196452287,
	"longitude": 114.21879568,
	"latitude": 22.23125699
}, {
	"unid": 4591,
	"punid": 4377,
	"pathunid": "-1,48,49,51332,4377,4591",
	"type": 5,
	"name": "昌江黎族自治县",
	"rank": 13955,
	"pathtext": "根地理信息,亚洲,中国,南区,海南省,昌江黎族自治县",
	"ename": "ChangJiangLiZuZiZhiXian",
	"createdate": 1453196452287,
	"longitude": 109.01129968,
	"latitude": 19.2224829
}, {
	"unid": 4592,
	"punid": 4377,
	"pathunid": "-1,48,49,51332,4377,4592",
	"type": 5,
	"name": "白沙黎族自治县",
	"rank": 37242,
	"pathtext": "根地理信息,亚洲,中国,南区,海南省,白沙黎族自治县",
	"ename": "BaiShaLiZuZiZhiXian",
	"createdate": 1453196452287,
	"longitude": 109.35858558,
	"latitude": 19.21605614
}, {
	"unid": 4593,
	"punid": 4377,
	"pathunid": "-1,48,49,51332,4377,4593",
	"type": 5,
	"name": "临高县",
	"rank": 16213,
	"pathtext": "根地理信息,亚洲,中国,南区,海南省,临高县",
	"ename": "LinGaoXian",
	"createdate": 1453196452287,
	"longitude": 109.72410153,
	"latitude": 19.80592201
}, {
	"unid": 4594,
	"punid": 4377,
	"pathunid": "-1,48,49,51332,4377,4594",
	"type": 5,
	"name": "澄迈县",
	"rank": 56940,
	"pathtext": "根地理信息,亚洲,中国,南区,海南省,澄迈县",
	"ename": "ChengMaiXian",
	"createdate": 1453196452287,
	"longitude": 109.9967362,
	"latitude": 19.69313507
}, {
	"unid": 4595,
	"punid": 4377,
	"pathunid": "-1,48,49,51332,4377,4595",
	"type": 5,
	"name": "屯昌县",
	"rank": 97683,
	"pathtext": "根地理信息,亚洲,中国,南区,海南省,屯昌县",
	"ename": "TunChangXian",
	"createdate": 1453196452287,
	"longitude": 110.06336404,
	"latitude": 19.34774913
}, {
	"unid": 4596,
	"punid": 4377,
	"pathunid": "-1,48,49,51332,4377,4596",
	"type": 5,
	"name": "定安县",
	"rank": 18341,
	"pathtext": "根地理信息,亚洲,中国,南区,海南省,定安县",
	"ename": "DingAnXian",
	"createdate": 1453196452287,
	"longitude": 110.32009007,
	"latitude": 19.4909914
}, {
	"unid": 4597,
	"punid": 4377,
	"pathunid": "-1,48,49,51332,4377,4597",
	"type": 5,
	"name": "中沙群岛的岛礁及其海域",
	"rank": 41498,
	"pathtext": "根地理信息,亚洲,中国,南区,海南省,中沙群岛的岛礁及其海域",
	"ename": "ZhongShaQunDaoDeDaoJiaoJiQiHaiYu",
	"createdate": 1453196452287,
	"longitude": 109.73375549,
	"latitude": 19.1805008
}, {
	"unid": 4598,
	"punid": 4377,
	"pathunid": "-1,48,49,51332,4377,4598",
	"type": 5,
	"name": "南沙群岛",
	"rank": 86234,
	"pathtext": "根地理信息,亚洲,中国,南区,海南省,南沙群岛",
	"ename": "NanShaQunDao",
	"createdate": 1453196452287,
	"longitude": 112.66030171,
	"latitude": 4.97436619
}, {
	"unid": 4599,
	"punid": 4377,
	"pathunid": "-1,48,49,51332,4377,4599",
	"type": 5,
	"name": "西沙群岛",
	"rank": 11145,
	"pathtext": "根地理信息,亚洲,中国,南区,海南省,西沙群岛",
	"ename": "XiShaQunDao",
	"createdate": 1453196452287,
	"longitude": 111.67308686,
	"latitude": 16.49708543
}, {
	"unid": 4600,
	"punid": 4377,
	"pathunid": "-1,48,49,51332,4377,4600",
	"type": 5,
	"name": "琼中黎族苗族自治县",
	"rank": 40239,
	"pathtext": "根地理信息,亚洲,中国,南区,海南省,琼中黎族苗族自治县",
	"ename": "QiongZhongLiZuMiaoZuZiZhiXian",
	"createdate": 1453196452287,
	"longitude": 109.86184857,
	"latitude": 19.03977107
}, {
	"unid": 4601,
	"punid": 4377,
	"pathunid": "-1,48,49,51332,4377,4601",
	"type": 5,
	"name": "保亭黎族苗族自治县",
	"rank": 83200,
	"pathtext": "根地理信息,亚洲,中国,南区,海南省,保亭黎族苗族自治县",
	"ename": "BaoTingLiZuMiaoZuZiZhiXian",
	"createdate": 1453196452287,
	"longitude": 109.65611338,
	"latitude": 18.59759235
}, {
	"unid": 4602,
	"punid": 4377,
	"pathunid": "-1,48,49,51332,4377,4602",
	"type": 5,
	"name": "陵水黎族自治县",
	"rank": 51321,
	"pathtext": "根地理信息,亚洲,中国,南区,海南省,陵水黎族自治县",
	"ename": "LingShuiLiZuZiZhiXian",
	"createdate": 1453196452287,
	"longitude": 109.94866071,
	"latitude": 18.57598485
}, {
	"unid": 4603,
	"punid": 4377,
	"pathunid": "-1,48,49,51332,4377,4603",
	"type": 5,
	"name": "乐东黎族自治县",
	"rank": 1467,
	"pathtext": "根地理信息,亚洲,中国,南区,海南省,乐东黎族自治县",
	"ename": "LeDongLiZuZiZhiXian",
	"createdate": 1453196452287,
	"longitude": 109.06269801,
	"latitude": 18.65861356
}, {
	"unid": 4604,
	"punid": 4377,
	"pathunid": "-1,48,49,51332,4377,4604",
	"type": 5,
	"name": "文昌市",
	"rank": 64772,
	"pathtext": "根地理信息,亚洲,中国,南区,海南省,文昌市",
	"ename": "WenChangShi",
	"createdate": 1453196452287,
	"longitude": 110.78090944,
	"latitude": 19.75094738
}, {
	"unid": 4605,
	"punid": 4377,
	"pathunid": "-1,48,49,51332,4377,4605",
	"type": 5,
	"name": "东方市",
	"rank": 94280,
	"pathtext": "根地理信息,亚洲,中国,南区,海南省,东方市",
	"ename": "DongFangShi",
	"createdate": 1453196452287,
	"longitude": 108.85100963,
	"latitude": 18.99816086
}, {
	"unid": 4606,
	"punid": 4377,
	"pathunid": "-1,48,49,51332,4377,4606",
	"type": 5,
	"name": "万宁市",
	"rank": 89085,
	"pathtext": "根地理信息,亚洲,中国,南区,海南省,万宁市",
	"ename": "WanNingShi",
	"createdate": 1453196452287,
	"longitude": 110.29250486,
	"latitude": 18.83988591
}, {
	"unid": 4607,
	"punid": 4377,
	"pathunid": "-1,48,49,51332,4377,4607",
	"type": 5,
	"name": "五指山市",
	"rank": 72169,
	"pathtext": "根地理信息,亚洲,中国,南区,海南省,五指山市",
	"ename": "WuZhiShanShi",
	"createdate": 1453196452287,
	"longitude": 109.51775006,
	"latitude": 18.83130575
}, {
	"unid": 4608,
	"punid": 4377,
	"pathunid": "-1,48,49,51332,4377,4608",
	"type": 5,
	"name": "儋州市",
	"rank": 48410,
	"pathtext": "根地理信息,亚洲,中国,南区,海南省,儋州市",
	"ename": "DanZhouShi",
	"createdate": 1453196452287,
	"longitude": 109.41397313,
	"latitude": 19.57115309
}, {
	"unid": 4609,
	"punid": 4377,
	"pathunid": "-1,48,49,51332,4377,4609",
	"type": 5,
	"name": "琼海市",
	"rank": 89260,
	"pathtext": "根地理信息,亚洲,中国,南区,海南省,琼海市",
	"ename": "QiongHaiShi",
	"createdate": 1453196452287,
	"longitude": 110.41435935,
	"latitude": 19.21483037
}, {
	"unid": 4610,
	"punid": 4377,
	"pathunid": "-1,48,49,51332,4377,4610",
	"type": 5,
	"name": "三沙市",
	"rank": 55237,
	"pathtext": "根地理信息,亚洲,中国,南区,海南省,三沙市",
	"ename": "SanShaShi",
	"createdate": 1453196452287,
	"longitude": 109.73375549,
	"latitude": 19.1805008
}, {
	"unid": 4611,
	"punid": 4377,
	"pathunid": "-1,48,49,51332,4377,4611",
	"type": 5,
	"name": "海口市",
	"rank": 8465,
	"pathtext": "根地理信息,亚洲,中国,南区,海南省,海口市",
	"ename": "HaiKouShi",
	"createdate": 1453196452287,
	"longitude": 110.33080185,
	"latitude": 20.02207128
}, {
	"unid": 4612,
	"punid": 4377,
	"pathunid": "-1,48,49,51332,4377,4612",
	"type": 5,
	"name": "三亚市",
	"rank": 99484,
	"pathtext": "根地理信息,亚洲,中国,南区,海南省,三亚市",
	"ename": "SanYaShi",
	"createdate": 1453196452287,
	"longitude": 109.52277128,
	"latitude": 18.25777591
}, {
	"unid": 4613,
	"punid": 184,
	"pathunid": "-1,48,49,51332,184,4613",
	"type": 5,
	"name": "新界",
	"rank": 57916,
	"pathtext": "根地理信息,亚洲,中国,南区,香港特别行政区,新界",
	"ename": "XinJie",
	"createdate": 1453196452287,
	"longitude": 114.21879568,
	"latitude": 22.23125699
}, {
	"unid": 4614,
	"punid": 184,
	"pathunid": "-1,48,49,51332,184,4614",
	"type": 5,
	"name": "九龙",
	"rank": 30341,
	"pathtext": "根地理信息,亚洲,中国,南区,香港特别行政区,九龙",
	"ename": "JiuLong",
	"createdate": 1453196452287,
	"longitude": 114.21879568,
	"latitude": 22.23125699
}, {
	"unid": 4615,
	"punid": 184,
	"pathunid": "-1,48,49,51332,184,4615",
	"type": 5,
	"name": "香港岛",
	"rank": 4069,
	"pathtext": "根地理信息,亚洲,中国,南区,香港特别行政区,香港岛",
	"ename": "XiangGangDao",
	"createdate": 1453196452287,
	"longitude": 114.18386964,
	"latitude": 22.27209959
}, {
	"unid": 4616,
	"punid": 4402,
	"pathunid": "-1,48,49,51333,4402,4616",
	"type": 5,
	"name": "玉溪市",
	"rank": 28038,
	"pathtext": "根地理信息,亚洲,中国,西区,云南省,玉溪市",
	"ename": "YuXiShi",
	"createdate": 1453196452287,
	"longitude": 102.54506789,
	"latitude": 24.37044713
}, {
	"unid": 4617,
	"punid": 4402,
	"pathunid": "-1,48,49,51333,4402,4617",
	"type": 5,
	"name": "曲靖市",
	"rank": 95520,
	"pathtext": "根地理信息,亚洲,中国,西区,云南省,曲靖市",
	"ename": "QuJingShi",
	"createdate": 1453196452287,
	"longitude": 103.78253889,
	"latitude": 25.52075814
}, {
	"unid": 4618,
	"punid": 4402,
	"pathunid": "-1,48,49,51333,4402,4618",
	"type": 5,
	"name": "昆明市",
	"rank": 24118,
	"pathtext": "根地理信息,亚洲,中国,西区,云南省,昆明市",
	"ename": "KunMingShi",
	"createdate": 1453196452287,
	"longitude": 102.71460114,
	"latitude": 25.0491531
}, {
	"unid": 4619,
	"punid": 4402,
	"pathunid": "-1,48,49,51333,4402,4619",
	"type": 5,
	"name": "丽江市",
	"rank": 50821,
	"pathtext": "根地理信息,亚洲,中国,西区,云南省,丽江市",
	"ename": "LiJiangShi",
	"createdate": 1453196452287,
	"longitude": 104.11412925,
	"latitude": 37.55033947
}, {
	"unid": 4620,
	"punid": 4402,
	"pathunid": "-1,48,49,51333,4402,4620",
	"type": 5,
	"name": "普洱市",
	"rank": 30853,
	"pathtext": "根地理信息,亚洲,中国,西区,云南省,普洱市",
	"ename": "PuErShi",
	"createdate": 1453196452287,
	"longitude": 100.98005773,
	"latitude": 22.78877778
}, {
	"unid": 4621,
	"punid": 4402,
	"pathunid": "-1,48,49,51333,4402,4621",
	"type": 5,
	"name": "临沧市",
	"rank": 73433,
	"pathtext": "根地理信息,亚洲,中国,西区,云南省,临沧市",
	"ename": "LinCangShi",
	"createdate": 1453196452287,
	"longitude": 100.09261291,
	"latitude": 23.8878061
}, {
	"unid": 4622,
	"punid": 4402,
	"pathunid": "-1,48,49,51333,4402,4622",
	"type": 5,
	"name": "保山市",
	"rank": 83103,
	"pathtext": "根地理信息,亚洲,中国,西区,云南省,保山市",
	"ename": "BaoShanShi",
	"createdate": 1453196452287,
	"longitude": 99.17799561,
	"latitude": 25.1204892
}, {
	"unid": 4623,
	"punid": 4402,
	"pathunid": "-1,48,49,51333,4402,4623",
	"type": 5,
	"name": "昭通市",
	"rank": 77460,
	"pathtext": "根地理信息,亚洲,中国,西区,云南省,昭通市",
	"ename": "ZhaoTongShi",
	"createdate": 1453196452287,
	"longitude": 103.72502066,
	"latitude": 27.34063296
}, {
	"unid": 4624,
	"punid": 4402,
	"pathunid": "-1,48,49,51333,4402,4624",
	"type": 5,
	"name": "楚雄彝族自治州",
	"rank": 79249,
	"pathtext": "根地理信息,亚洲,中国,西区,云南省,楚雄彝族自治州",
	"ename": "ChuXiongYiZuZiZhiZhou",
	"createdate": 1453196452287,
	"longitude": 101.52938224,
	"latitude": 25.06635567
}, {
	"unid": 4625,
	"punid": 4402,
	"pathunid": "-1,48,49,51333,4402,4625",
	"type": 5,
	"name": "德宏傣族景颇族自治州",
	"rank": 98896,
	"pathtext": "根地理信息,亚洲,中国,西区,云南省,德宏傣族景颇族自治州",
	"ename": "DeHongDaiZuJingPoZuZiZhiZhou",
	"createdate": 1453196452287,
	"longitude": 98.58943429,
	"latitude": 24.44123966
}, {
	"unid": 4626,
	"punid": 4402,
	"pathunid": "-1,48,49,51333,4402,4626",
	"type": 5,
	"name": "迪庆藏族自治州",
	"rank": 31721,
	"pathtext": "根地理信息,亚洲,中国,西区,云南省,迪庆藏族自治州",
	"ename": "DiQingZangZuZiZhiZhou",
	"createdate": 1453196452287,
	"longitude": 99.7136816,
	"latitude": 27.83102946
}, {
	"unid": 4627,
	"punid": 4402,
	"pathunid": "-1,48,49,51333,4402,4627",
	"type": 5,
	"name": "怒江傈僳族自治州",
	"rank": 48885,
	"pathtext": "根地理信息,亚洲,中国,西区,云南省,怒江傈僳族自治州",
	"ename": "NuJiangLiSuZuZiZhiZhou",
	"createdate": 1453196452287,
	"longitude": 98.85993204,
	"latitude": 25.86067698
}, {
	"unid": 4628,
	"punid": 4402,
	"pathunid": "-1,48,49,51333,4402,4628",
	"type": 5,
	"name": "文山壮族苗族自治州",
	"rank": 2219,
	"pathtext": "根地理信息,亚洲,中国,西区,云南省,文山壮族苗族自治州",
	"ename": "WenShanZhuangZuMiaoZuZiZhiZhou",
	"createdate": 1453196452287,
	"longitude": 104.24629432,
	"latitude": 23.37408685
}, {
	"unid": 4629,
	"punid": 4402,
	"pathunid": "-1,48,49,51333,4402,4629",
	"type": 5,
	"name": "红河哈尼族彝族自治州",
	"rank": 37834,
	"pathtext": "根地理信息,亚洲,中国,西区,云南省,红河哈尼族彝族自治州",
	"ename": "HongHeHaNiZuYiZuZiZhiZhou",
	"createdate": 1453196452287,
	"longitude": 103.38406476,
	"latitude": 23.36771752
}, {
	"unid": 4630,
	"punid": 4402,
	"pathunid": "-1,48,49,51333,4402,4630",
	"type": 5,
	"name": "大理白族自治州",
	"rank": 1884,
	"pathtext": "根地理信息,亚洲,中国,西区,云南省,大理白族自治州",
	"ename": "DaLiBaiZuZiZhiZhou",
	"createdate": 1453196452287,
	"longitude": 100.22367479,
	"latitude": 25.59689964
}, {
	"unid": 4631,
	"punid": 4402,
	"pathunid": "-1,48,49,51333,4402,4631",
	"type": 5,
	"name": "西双版纳傣族自治州",
	"rank": 62215,
	"pathtext": "根地理信息,亚洲,中国,西区,云南省,西双版纳傣族自治州",
	"ename": "XiShuangBanNaDaiZuZiZhiZhou",
	"createdate": 1453196452287,
	"longitude": 100.80303828,
	"latitude": 22.009433
}, {
	"unid": 4632,
	"punid": 4370,
	"pathunid": "-1,48,49,51333,4370,4632",
	"type": 5,
	"name": "安顺市",
	"rank": 82492,
	"pathtext": "根地理信息,亚洲,中国,西区,贵州省,安顺市",
	"ename": "AnShunShi",
	"createdate": 1453196452287,
	"longitude": 105.92826997,
	"latitude": 26.22859458
}, {
	"unid": 4633,
	"punid": 4370,
	"pathunid": "-1,48,49,51333,4370,4633",
	"type": 5,
	"name": "六盘水市",
	"rank": 99513,
	"pathtext": "根地理信息,亚洲,中国,西区,贵州省,六盘水市",
	"ename": "LiuPanShuiShi",
	"createdate": 1453196452287,
	"longitude": 104.85208676,
	"latitude": 26.59186606
}, {
	"unid": 4634,
	"punid": 4370,
	"pathunid": "-1,48,49,51333,4370,4634",
	"type": 5,
	"name": "遵义市",
	"rank": 31158,
	"pathtext": "根地理信息,亚洲,中国,西区,贵州省,遵义市",
	"ename": "ZunYiShi",
	"createdate": 1453196452287,
	"longitude": 106.41551012,
	"latitude": 28.52184982
}, {
	"unid": 4635,
	"punid": 4370,
	"pathunid": "-1,48,49,51333,4370,4635",
	"type": 5,
	"name": "铜仁市",
	"rank": 994,
	"pathtext": "根地理信息,亚洲,中国,西区,贵州省,铜仁市",
	"ename": "TongRenShi",
	"createdate": 1453196452287,
	"longitude": 109.16855803,
	"latitude": 27.67490269
}, {
	"unid": 4636,
	"punid": 4370,
	"pathunid": "-1,48,49,51333,4370,4636",
	"type": 5,
	"name": "黔西南布依族苗族自治州",
	"rank": 8089,
	"pathtext": "根地理信息,亚洲,中国,西区,贵州省,黔西南布依族苗族自治州",
	"ename": "QianXiNanBuYiZuMiaoZuZiZhiZhou",
	"createdate": 1453196452287,
	"longitude": 104.9005578,
	"latitude": 25.09514806
}, {
	"unid": 4637,
	"punid": 4370,
	"pathunid": "-1,48,49,51333,4370,4637",
	"type": 5,
	"name": "毕节市",
	"rank": 6867,
	"pathtext": "根地理信息,亚洲,中国,西区,贵州省,毕节市",
	"ename": "BiJieShi",
	"createdate": 1453196452287,
	"longitude": 105.33332337,
	"latitude": 27.40856213
}, {
	"unid": 4638,
	"punid": 4370,
	"pathunid": "-1,48,49,51333,4370,4638",
	"type": 5,
	"name": "黔东南苗族侗族自治州",
	"rank": 34607,
	"pathtext": "根地理信息,亚洲,中国,西区,贵州省,黔东南苗族侗族自治州",
	"ename": "QianDongNanMiaoZuDongZuZiZhiZhou",
	"createdate": 1453196452287,
	"longitude": 107.98535257,
	"latitude": 26.58399177
}, {
	"unid": 4639,
	"punid": 4370,
	"pathunid": "-1,48,49,51333,4370,4639",
	"type": 5,
	"name": "黔南布依族苗族自治州",
	"rank": 33852,
	"pathtext": "根地理信息,亚洲,中国,西区,贵州省,黔南布依族苗族自治州",
	"ename": "QianNanBuYiZuMiaoZuZiZhiZhou",
	"createdate": 1453196452287,
	"longitude": 107.52320511,
	"latitude": 26.264536
}, {
	"unid": 4640,
	"punid": 4370,
	"pathunid": "-1,48,49,51333,4370,4640",
	"type": 5,
	"name": "贵阳市",
	"rank": 46962,
	"pathtext": "根地理信息,亚洲,中国,西区,贵州省,贵阳市",
	"ename": "GuiYangShi",
	"createdate": 1453196452287,
	"longitude": 106.7091771,
	"latitude": 26.62990674
}, {
	"unid": 4641,
	"punid": 4369,
	"pathunid": "-1,48,49,51331,4369,4641",
	"type": 5,
	"name": "宿迁市",
	"rank": 1332,
	"pathtext": "根地理信息,亚洲,中国,东区,江苏省,宿迁市",
	"ename": "SuQianShi",
	"createdate": 1453196452287,
	"longitude": 118.29689338,
	"latitude": 33.95204973
}, {
	"unid": 4642,
	"punid": 4369,
	"pathunid": "-1,48,49,51331,4369,4642",
	"type": 5,
	"name": "泰州市",
	"rank": 80371,
	"pathtext": "根地理信息,亚洲,中国,东区,江苏省,泰州市",
	"ename": "TaiZhouShi",
	"createdate": 1453196452287,
	"longitude": 119.91960602,
	"latitude": 32.47605327
}, {
	"unid": 4643,
	"punid": 4369,
	"pathunid": "-1,48,49,51331,4369,4643",
	"type": 5,
	"name": "镇江市",
	"rank": 68964,
	"pathtext": "根地理信息,亚洲,中国,东区,江苏省,镇江市",
	"ename": "ZhenJiangShi",
	"createdate": 1453196452287,
	"longitude": 119.45583541,
	"latitude": 32.20440944
}, {
	"unid": 4644,
	"punid": 4369,
	"pathunid": "-1,48,49,51331,4369,4644",
	"type": 5,
	"name": "扬州市",
	"rank": 37288,
	"pathtext": "根地理信息,亚洲,中国,东区,江苏省,扬州市",
	"ename": "YangZhouShi",
	"createdate": 1453196452287,
	"longitude": 119.42777755,
	"latitude": 32.40850525
}, {
	"unid": 4645,
	"punid": 4369,
	"pathunid": "-1,48,49,51331,4369,4645",
	"type": 5,
	"name": "盐城市",
	"rank": 56008,
	"pathtext": "根地理信息,亚洲,中国,东区,江苏省,盐城市",
	"ename": "YanChengShi",
	"createdate": 1453196452287,
	"longitude": 120.14887182,
	"latitude": 33.37986188
}, {
	"unid": 4646,
	"punid": 4369,
	"pathunid": "-1,48,49,51331,4369,4646",
	"type": 5,
	"name": "淮安市",
	"rank": 24064,
	"pathtext": "根地理信息,亚洲,中国,东区,江苏省,淮安市",
	"ename": "HuaiAnShi",
	"createdate": 1453196452287,
	"longitude": 119.03018636,
	"latitude": 33.60651274
}, {
	"unid": 4647,
	"punid": 4369,
	"pathunid": "-1,48,49,51331,4369,4647",
	"type": 5,
	"name": "连云港市",
	"rank": 624,
	"pathtext": "根地理信息,亚洲,中国,东区,江苏省,连云港市",
	"ename": "LianYunGangShi",
	"createdate": 1453196452287,
	"longitude": 119.17387222,
	"latitude": 34.60154897
}, {
	"unid": 4648,
	"punid": 4369,
	"pathunid": "-1,48,49,51331,4369,4648",
	"type": 5,
	"name": "南通市",
	"rank": 10987,
	"pathtext": "根地理信息,亚洲,中国,东区,江苏省,南通市",
	"ename": "NanTongShi",
	"createdate": 1453196452287,
	"longitude": 120.87380095,
	"latitude": 32.01466454
}, {
	"unid": 4649,
	"punid": 4369,
	"pathunid": "-1,48,49,51331,4369,4649",
	"type": 5,
	"name": "常州市",
	"rank": 95981,
	"pathtext": "根地理信息,亚洲,中国,东区,江苏省,常州市",
	"ename": "ChangZhouShi",
	"createdate": 1453196452287,
	"longitude": 119.98186101,
	"latitude": 31.77139674
}, {
	"unid": 4650,
	"punid": 4369,
	"pathunid": "-1,48,49,51331,4369,4650",
	"type": 5,
	"name": "苏州市",
	"rank": 82072,
	"pathtext": "根地理信息,亚洲,中国,东区,江苏省,苏州市",
	"ename": "SuZhouShi",
	"createdate": 1453196452287,
	"longitude": 120.61990712,
	"latitude": 31.31798737
}, {
	"unid": 4651,
	"punid": 4369,
	"pathunid": "-1,48,49,51331,4369,4651",
	"type": 5,
	"name": "徐州市",
	"rank": 9278,
	"pathtext": "根地理信息,亚洲,中国,东区,江苏省,徐州市",
	"ename": "XuZhouShi",
	"createdate": 1453196452287,
	"longitude": 117.18810662,
	"latitude": 34.27155343
}, {
	"unid": 4652,
	"punid": 4369,
	"pathunid": "-1,48,49,51331,4369,4652",
	"type": 5,
	"name": "无锡市",
	"rank": 93071,
	"pathtext": "根地理信息,亚洲,中国,东区,江苏省,无锡市",
	"ename": "WuXiShi",
	"createdate": 1453196452287,
	"longitude": 120.3054559,
	"latitude": 31.57003745
}, {
	"unid": 4653,
	"punid": 4369,
	"pathunid": "-1,48,49,51331,4369,4653",
	"type": 5,
	"name": "南京市",
	"rank": 49637,
	"pathtext": "根地理信息,亚洲,中国,东区,江苏省,南京市",
	"ename": "NanJingShi",
	"createdate": 1453196452287,
	"longitude": 118.77807441,
	"latitude": 32.0572355
}, {
	"unid": 4654,
	"punid": 4403,
	"pathunid": "-1,48,49,51333,4403,4654",
	"type": 5,
	"name": "拉萨市",
	"rank": 48823,
	"pathtext": "根地理信息,亚洲,中国,西区,西藏自治区,拉萨市",
	"ename": "LaSaShi",
	"createdate": 1453196452287,
	"longitude": 91.1118909,
	"latitude": 29.66255706
}, {
	"unid": 4655,
	"punid": 4403,
	"pathunid": "-1,48,49,51333,4403,4655",
	"type": 5,
	"name": "山南地区",
	"rank": 1315,
	"pathtext": "根地理信息,亚洲,中国,西区,西藏自治区,山南地区",
	"ename": "ShanNanDiQu",
	"createdate": 1453196452287,
	"longitude": 91.75064387,
	"latitude": 29.22902693
}, {
	"unid": 4656,
	"punid": 4403,
	"pathunid": "-1,48,49,51333,4403,4656",
	"type": 5,
	"name": "昌都地区",
	"rank": 44359,
	"pathtext": "根地理信息,亚洲,中国,西区,西藏自治区,昌都地区",
	"ename": "ChangDuDiQu",
	"createdate": 1453196452287,
	"longitude": 97.18558158,
	"latitude": 31.14057563
}, {
	"unid": 4657,
	"punid": 4403,
	"pathunid": "-1,48,49,51333,4403,4657",
	"type": 5,
	"name": "日喀则地区",
	"rank": 79783,
	"pathtext": "根地理信息,亚洲,中国,西区,西藏自治区,日喀则地区",
	"ename": "RiKaZeDiQu",
	"createdate": 1453196452287,
	"longitude": 88.95606277,
	"latitude": 29.26816003
}, {
	"unid": 4658,
	"punid": 4403,
	"pathunid": "-1,48,49,51333,4403,4658",
	"type": 5,
	"name": "那曲地区",
	"rank": 88119,
	"pathtext": "根地理信息,亚洲,中国,西区,西藏自治区,那曲地区",
	"ename": "NaQuDiQu",
	"createdate": 1453196452287,
	"longitude": 92.06701837,
	"latitude": 31.48067983
}, {
	"unid": 4659,
	"punid": 4403,
	"pathunid": "-1,48,49,51333,4403,4659",
	"type": 5,
	"name": "阿里地区",
	"rank": 99985,
	"pathtext": "根地理信息,亚洲,中国,西区,西藏自治区,阿里地区",
	"ename": "ALiDiQu",
	"createdate": 1453196452287,
	"longitude": 81.10766869,
	"latitude": 30.40455659
}, {
	"unid": 4660,
	"punid": 4403,
	"pathunid": "-1,48,49,51333,4403,4660",
	"type": 5,
	"name": "林芝地区",
	"rank": 40182,
	"pathtext": "根地理信息,亚洲,中国,西区,西藏自治区,林芝地区",
	"ename": "LinZhiDiQu",
	"createdate": 1453196452287,
	"longitude": 94.34998546,
	"latitude": 29.66694063
}, {
	"unid": 4661,
	"punid": 4404,
	"pathunid": "-1,48,49,51330,4404,4661",
	"type": 5,
	"name": "北京市",
	"rank": 68423,
	"pathtext": "根地理信息,亚洲,中国,北区,北京,北京市",
	"ename": "BeiJingShi",
	"createdate": 1453196452287,
	"longitude": 116.39564504,
	"latitude": 39.92998578
}, {
	"unid": 4662,
	"punid": 4379,
	"pathunid": "-1,48,49,51333,4379,4662",
	"type": 5,
	"name": "资阳市",
	"rank": 53589,
	"pathtext": "根地理信息,亚洲,中国,西区,四川省,资阳市",
	"ename": "ZiYangShi",
	"createdate": 1453196452287,
	"longitude": 104.6359303,
	"latitude": 30.13219143
}, {
	"unid": 4663,
	"punid": 4379,
	"pathunid": "-1,48,49,51333,4379,4663",
	"type": 5,
	"name": "阿坝藏族羌族自治州",
	"rank": 23732,
	"pathtext": "根地理信息,亚洲,中国,西区,四川省,阿坝藏族羌族自治州",
	"ename": "ABaZangZuQiangZuZiZhiZhou",
	"createdate": 1453196452287,
	"longitude": 102.22856469,
	"latitude": 31.90576286
}, {
	"unid": 4664,
	"punid": 4379,
	"pathunid": "-1,48,49,51333,4379,4664",
	"type": 5,
	"name": "甘孜藏族自治州",
	"rank": 2621,
	"pathtext": "根地理信息,亚洲,中国,西区,四川省,甘孜藏族自治州",
	"ename": "GanZiZangZuZiZhiZhou",
	"createdate": 1453196452287,
	"longitude": 101.96923206,
	"latitude": 30.05514411
}, {
	"unid": 4665,
	"punid": 4379,
	"pathunid": "-1,48,49,51333,4379,4665",
	"type": 5,
	"name": "凉山彝族自治州",
	"rank": 53994,
	"pathtext": "根地理信息,亚洲,中国,西区,四川省,凉山彝族自治州",
	"ename": "LiangShanYiZuZiZhiZhou",
	"createdate": 1453196452287,
	"longitude": 102.89915972,
	"latitude": 30.36748094
}, {
	"unid": 4666,
	"punid": 4379,
	"pathunid": "-1,48,49,51333,4379,4666",
	"type": 5,
	"name": "广元市",
	"rank": 18361,
	"pathtext": "根地理信息,亚洲,中国,西区,四川省,广元市",
	"ename": "GuangYuanShi",
	"createdate": 1453196452287,
	"longitude": 105.81968694,
	"latitude": 32.44104016
}, {
	"unid": 4667,
	"punid": 4379,
	"pathunid": "-1,48,49,51333,4379,4667",
	"type": 5,
	"name": "遂宁市",
	"rank": 13298,
	"pathtext": "根地理信息,亚洲,中国,西区,四川省,遂宁市",
	"ename": "SuiNingShi",
	"createdate": 1453196452287,
	"longitude": 105.56488779,
	"latitude": 30.55749135
}, {
	"unid": 4668,
	"punid": 4379,
	"pathunid": "-1,48,49,51333,4379,4668",
	"type": 5,
	"name": "泸州市",
	"rank": 28870,
	"pathtext": "根地理信息,亚洲,中国,西区,四川省,泸州市",
	"ename": "LuZhouShi",
	"createdate": 1453196452287,
	"longitude": 105.44397029,
	"latitude": 28.8959298
}, {
	"unid": 4669,
	"punid": 4379,
	"pathunid": "-1,48,49,51333,4379,4669",
	"type": 5,
	"name": "绵阳市",
	"rank": 44911,
	"pathtext": "根地理信息,亚洲,中国,西区,四川省,绵阳市",
	"ename": "MianYangShi",
	"createdate": 1453196452287,
	"longitude": 104.70551898,
	"latitude": 31.50470126
}, {
	"unid": 4670,
	"punid": 4379,
	"pathunid": "-1,48,49,51333,4379,4670",
	"type": 5,
	"name": "德阳市",
	"rank": 19020,
	"pathtext": "根地理信息,亚洲,中国,西区,四川省,德阳市",
	"ename": "DeYangShi",
	"createdate": 1453196452287,
	"longitude": 104.40239782,
	"latitude": 31.13113965
}, {
	"unid": 4671,
	"punid": 4379,
	"pathunid": "-1,48,49,51333,4379,4671",
	"type": 5,
	"name": "自贡市",
	"rank": 93910,
	"pathtext": "根地理信息,亚洲,中国,西区,四川省,自贡市",
	"ename": "ZiGongShi",
	"createdate": 1453196452287,
	"longitude": 104.77607134,
	"latitude": 29.35915689
}, {
	"unid": 4672,
	"punid": 4379,
	"pathunid": "-1,48,49,51333,4379,4672",
	"type": 5,
	"name": "攀枝花市",
	"rank": 83311,
	"pathtext": "根地理信息,亚洲,中国,西区,四川省,攀枝花市",
	"ename": "PanZhiHuaShi",
	"createdate": 1453196452287,
	"longitude": 101.55533231,
	"latitude": 26.61086914
}, {
	"unid": 4673,
	"punid": 4379,
	"pathunid": "-1,48,49,51333,4379,4673",
	"type": 5,
	"name": "成都市",
	"rank": 58238,
	"pathtext": "根地理信息,亚洲,中国,西区,四川省,成都市",
	"ename": "ChengDuShi",
	"createdate": 1453196452287,
	"longitude": 104.06792346,
	"latitude": 30.67994285
}, {
	"unid": 4674,
	"punid": 4379,
	"pathunid": "-1,48,49,51333,4379,4674",
	"type": 5,
	"name": "雅安市",
	"rank": 43929,
	"pathtext": "根地理信息,亚洲,中国,西区,四川省,雅安市",
	"ename": "YaAnShi",
	"createdate": 1453196452287,
	"longitude": 103.00935647,
	"latitude": 29.99971634
}, {
	"unid": 4675,
	"punid": 4379,
	"pathunid": "-1,48,49,51333,4379,4675",
	"type": 5,
	"name": "巴中市",
	"rank": 83892,
	"pathtext": "根地理信息,亚洲,中国,西区,四川省,巴中市",
	"ename": "BaZhongShi",
	"createdate": 1453196452287,
	"longitude": 106.75791584,
	"latitude": 31.86918916
}, {
	"unid": 4676,
	"punid": 4379,
	"pathunid": "-1,48,49,51333,4379,4676",
	"type": 5,
	"name": "宜宾市",
	"rank": 45855,
	"pathtext": "根地理信息,亚洲,中国,西区,四川省,宜宾市",
	"ename": "YiBinShi",
	"createdate": 1453196452287,
	"longitude": 104.63301906,
	"latitude": 28.7696748
}, {
	"unid": 4677,
	"punid": 4379,
	"pathunid": "-1,48,49,51333,4379,4677",
	"type": 5,
	"name": "广安市",
	"rank": 57311,
	"pathtext": "根地理信息,亚洲,中国,西区,四川省,广安市",
	"ename": "GuangAnShi",
	"createdate": 1453196452287,
	"longitude": 106.63572033,
	"latitude": 30.46398389
}, {
	"unid": 4678,
	"punid": 4379,
	"pathunid": "-1,48,49,51333,4379,4678",
	"type": 5,
	"name": "达州市",
	"rank": 20998,
	"pathtext": "根地理信息,亚洲,中国,西区,四川省,达州市",
	"ename": "DaZhouShi",
	"createdate": 1453196452287,
	"longitude": 107.49497345,
	"latitude": 31.21419886
}, {
	"unid": 4679,
	"punid": 4379,
	"pathunid": "-1,48,49,51333,4379,4679",
	"type": 5,
	"name": "南充市",
	"rank": 86012,
	"pathtext": "根地理信息,亚洲,中国,西区,四川省,南充市",
	"ename": "NanChongShi",
	"createdate": 1453196452287,
	"longitude": 106.10555398,
	"latitude": 30.80096517
}, {
	"unid": 4680,
	"punid": 4379,
	"pathunid": "-1,48,49,51333,4379,4680",
	"type": 5,
	"name": "眉山市",
	"rank": 34154,
	"pathtext": "根地理信息,亚洲,中国,西区,四川省,眉山市",
	"ename": "MeiShanShi",
	"createdate": 1453196452287,
	"longitude": 103.84142956,
	"latitude": 30.06111508
}, {
	"unid": 4681,
	"punid": 4379,
	"pathunid": "-1,48,49,51333,4379,4681",
	"type": 5,
	"name": "内江市",
	"rank": 87152,
	"pathtext": "根地理信息,亚洲,中国,西区,四川省,内江市",
	"ename": "NeiJiangShi",
	"createdate": 1453196452287,
	"longitude": 105.07305599,
	"latitude": 29.59946153
}, {
	"unid": 4682,
	"punid": 4379,
	"pathunid": "-1,48,49,51333,4379,4682",
	"type": 5,
	"name": "乐山市",
	"rank": 84977,
	"pathtext": "根地理信息,亚洲,中国,西区,四川省,乐山市",
	"ename": "LeShanShi",
	"createdate": 1453196452287,
	"longitude": 103.76082424,
	"latitude": 29.60095761
}, {
	"unid": 4683,
	"punid": 4405,
	"pathunid": "-1,48,49,51330,4405,4683",
	"type": 5,
	"name": "大兴安岭地区",
	"rank": 22912,
	"pathtext": "根地理信息,亚洲,中国,北区,黑龙江省,大兴安岭地区",
	"ename": "DaXingAnLingDiQu",
	"createdate": 1453196452287,
	"longitude": 124.19610419,
	"latitude": 51.99178897
}, {
	"unid": 4684,
	"punid": 4405,
	"pathunid": "-1,48,49,51330,4405,4684",
	"type": 5,
	"name": "绥化市",
	"rank": 42246,
	"pathtext": "根地理信息,亚洲,中国,北区,黑龙江省,绥化市",
	"ename": "SuiHuaShi",
	"createdate": 1453196452287,
	"longitude": 126.98909457,
	"latitude": 46.64606393
}, {
	"unid": 4685,
	"punid": 4405,
	"pathunid": "-1,48,49,51330,4405,4685",
	"type": 5,
	"name": "牡丹江市",
	"rank": 31490,
	"pathtext": "根地理信息,亚洲,中国,北区,黑龙江省,牡丹江市",
	"ename": "MuDanJiangShi",
	"createdate": 1453196452287,
	"longitude": 129.6080354,
	"latitude": 44.58852115
}, {
	"unid": 4686,
	"punid": 4405,
	"pathunid": "-1,48,49,51330,4405,4686",
	"type": 5,
	"name": "黑河市",
	"rank": 29346,
	"pathtext": "根地理信息,亚洲,中国,北区,黑龙江省,黑河市",
	"ename": "HeiHeShi",
	"createdate": 1453196452287,
	"longitude": 127.5008303,
	"latitude": 50.25069009
}, {
	"unid": 4687,
	"punid": 4405,
	"pathunid": "-1,48,49,51330,4405,4687",
	"type": 5,
	"name": "伊春市",
	"rank": 2935,
	"pathtext": "根地理信息,亚洲,中国,北区,黑龙江省,伊春市",
	"ename": "YiChunShi",
	"createdate": 1453196452287,
	"longitude": 128.91076598,
	"latitude": 47.73468508
}, {
	"unid": 4688,
	"punid": 4405,
	"pathunid": "-1,48,49,51330,4405,4688",
	"type": 5,
	"name": "七台河市",
	"rank": 63210,
	"pathtext": "根地理信息,亚洲,中国,北区,黑龙江省,七台河市",
	"ename": "QiTaiHeShi",
	"createdate": 1453196452287,
	"longitude": 131.01904805,
	"latitude": 45.77500537
}, {
	"unid": 4689,
	"punid": 4405,
	"pathunid": "-1,48,49,51330,4405,4689",
	"type": 5,
	"name": "佳木斯市",
	"rank": 40227,
	"pathtext": "根地理信息,亚洲,中国,北区,黑龙江省,佳木斯市",
	"ename": "JiaMuSiShi",
	"createdate": 1453196452287,
	"longitude": 130.28473459,
	"latitude": 46.8137796
}, {
	"unid": 4690,
	"punid": 4405,
	"pathunid": "-1,48,49,51330,4405,4690",
	"type": 5,
	"name": "双鸭山市",
	"rank": 72885,
	"pathtext": "根地理信息,亚洲,中国,北区,黑龙江省,双鸭山市",
	"ename": "ShuangYaShanShi",
	"createdate": 1453196452287,
	"longitude": 131.17140174,
	"latitude": 46.65510206
}, {
	"unid": 4691,
	"punid": 4405,
	"pathunid": "-1,48,49,51330,4405,4691",
	"type": 5,
	"name": "鹤岗市",
	"rank": 27680,
	"pathtext": "根地理信息,亚洲,中国,北区,黑龙江省,鹤岗市",
	"ename": "HeGangShi",
	"createdate": 1453196452287,
	"longitude": 130.29247205,
	"latitude": 47.3386659
}, {
	"unid": 4692,
	"punid": 4405,
	"pathunid": "-1,48,49,51330,4405,4692",
	"type": 5,
	"name": "大庆市",
	"rank": 88422,
	"pathtext": "根地理信息,亚洲,中国,北区,黑龙江省,大庆市",
	"ename": "DaQingShi",
	"createdate": 1453196452287,
	"longitude": 125.02183973,
	"latitude": 46.59670902
}, {
	"unid": 4693,
	"punid": 4405,
	"pathunid": "-1,48,49,51330,4405,4693",
	"type": 5,
	"name": "齐齐哈尔市",
	"rank": 1169,
	"pathtext": "根地理信息,亚洲,中国,北区,黑龙江省,齐齐哈尔市",
	"ename": "QiQiHaErShi",
	"createdate": 1453196452287,
	"longitude": 124.49826298,
	"latitude": 47.60608614
}, {
	"unid": 4694,
	"punid": 4405,
	"pathunid": "-1,48,49,51330,4405,4694",
	"type": 5,
	"name": "鸡西市",
	"rank": 96003,
	"pathtext": "根地理信息,亚洲,中国,北区,黑龙江省,鸡西市",
	"ename": "JiXiShi",
	"createdate": 1453196452287,
	"longitude": 130.94176727,
	"latitude": 45.32153989
}, {
	"unid": 4695,
	"punid": 4405,
	"pathunid": "-1,48,49,51330,4405,4695",
	"type": 5,
	"name": "哈尔滨市",
	"rank": 77621,
	"pathtext": "根地理信息,亚洲,中国,北区,黑龙江省,哈尔滨市",
	"ename": "HaErBinShi",
	"createdate": 1453196452287,
	"longitude": 126.65771686,
	"latitude": 45.77322463
}, {
	"unid": 4696,
	"punid": 4365,
	"pathunid": "-1,48,49,51332,4365,4696",
	"type": 5,
	"name": "崇左市",
	"rank": 974,
	"pathtext": "根地理信息,亚洲,中国,南区,广西壮族自治区,崇左市",
	"ename": "ChongZuoShi",
	"createdate": 1453196452287,
	"longitude": 107.35732204,
	"latitude": 22.4154553
}, {
	"unid": 4697,
	"punid": 4365,
	"pathunid": "-1,48,49,51332,4365,4697",
	"type": 5,
	"name": "河池市",
	"rank": 54858,
	"pathtext": "根地理信息,亚洲,中国,南区,广西壮族自治区,河池市",
	"ename": "HeChiShi",
	"createdate": 1453196452287,
	"longitude": 108.25187838,
	"latitude": 24.83584924
}, {
	"unid": 4698,
	"punid": 4365,
	"pathunid": "-1,48,49,51332,4365,4698",
	"type": 5,
	"name": "来宾市",
	"rank": 26904,
	"pathtext": "根地理信息,亚洲,中国,南区,广西壮族自治区,来宾市",
	"ename": "LaiBinShi",
	"createdate": 1453196452287,
	"longitude": 109.2318165,
	"latitude": 23.74116593
}, {
	"unid": 4699,
	"punid": 4365,
	"pathunid": "-1,48,49,51332,4365,4699",
	"type": 5,
	"name": "贺州市",
	"rank": 37104,
	"pathtext": "根地理信息,亚洲,中国,南区,广西壮族自治区,贺州市",
	"ename": "HeZhouShi",
	"createdate": 1453196452287,
	"longitude": 111.55259418,
	"latitude": 24.41105355
}, {
	"unid": 4700,
	"punid": 4365,
	"pathunid": "-1,48,49,51332,4365,4700",
	"type": 5,
	"name": "百色市",
	"rank": 5851,
	"pathtext": "根地理信息,亚洲,中国,南区,广西壮族自治区,百色市",
	"ename": "BoSeShi",
	"createdate": 1453196452287,
	"longitude": 106.6318214,
	"latitude": 23.90151237
}, {
	"unid": 4701,
	"punid": 4365,
	"pathunid": "-1,48,49,51332,4365,4701",
	"type": 5,
	"name": "玉林市",
	"rank": 76324,
	"pathtext": "根地理信息,亚洲,中国,南区,广西壮族自治区,玉林市",
	"ename": "YuLinShi",
	"createdate": 1453196452287,
	"longitude": 110.15167632,
	"latitude": 22.64397361
}, {
	"unid": 4702,
	"punid": 4365,
	"pathunid": "-1,48,49,51332,4365,4702",
	"type": 5,
	"name": "钦州市",
	"rank": 82656,
	"pathtext": "根地理信息,亚洲,中国,南区,广西壮族自治区,钦州市",
	"ename": "QinZhouShi",
	"createdate": 1453196452287,
	"longitude": 108.63879806,
	"latitude": 21.97335047
}, {
	"unid": 4703,
	"punid": 4365,
	"pathunid": "-1,48,49,51332,4365,4703",
	"type": 5,
	"name": "贵港市",
	"rank": 45067,
	"pathtext": "根地理信息,亚洲,中国,南区,广西壮族自治区,贵港市",
	"ename": "GuiGangShi",
	"createdate": 1453196452287,
	"longitude": 109.61370756,
	"latitude": 23.10337316
}, {
	"unid": 4704,
	"punid": 4365,
	"pathunid": "-1,48,49,51332,4365,4704",
	"type": 5,
	"name": "防城港市",
	"rank": 64427,
	"pathtext": "根地理信息,亚洲,中国,南区,广西壮族自治区,防城港市",
	"ename": "FangChengGangShi",
	"createdate": 1453196452287,
	"longitude": 108.35179115,
	"latitude": 21.61739847
}, {
	"unid": 4705,
	"punid": 4365,
	"pathunid": "-1,48,49,51332,4365,4705",
	"type": 5,
	"name": "南宁市",
	"rank": 72594,
	"pathtext": "根地理信息,亚洲,中国,南区,广西壮族自治区,南宁市",
	"ename": "NanNingShi",
	"createdate": 1453196452287,
	"longitude": 108.29723356,
	"latitude": 22.80649294
}, {
	"unid": 4706,
	"punid": 4365,
	"pathunid": "-1,48,49,51332,4365,4706",
	"type": 5,
	"name": "柳州市",
	"rank": 95266,
	"pathtext": "根地理信息,亚洲,中国,南区,广西壮族自治区,柳州市",
	"ename": "LiuZhouShi",
	"createdate": 1453196452287,
	"longitude": 109.42240181,
	"latitude": 24.32905335
}, {
	"unid": 4707,
	"punid": 4365,
	"pathunid": "-1,48,49,51332,4365,4707",
	"type": 5,
	"name": "桂林市",
	"rank": 82793,
	"pathtext": "根地理信息,亚洲,中国,南区,广西壮族自治区,桂林市",
	"ename": "GuiLinShi",
	"createdate": 1453196452287,
	"longitude": 110.26092015,
	"latitude": 25.26290125
}, {
	"unid": 4708,
	"punid": 4365,
	"pathunid": "-1,48,49,51332,4365,4708",
	"type": 5,
	"name": "梧州市",
	"rank": 25874,
	"pathtext": "根地理信息,亚洲,中国,南区,广西壮族自治区,梧州市",
	"ename": "WuZhouShi",
	"createdate": 1453196452287,
	"longitude": 111.30547195,
	"latitude": 23.48539464
}, {
	"unid": 4709,
	"punid": 4365,
	"pathunid": "-1,48,49,51332,4365,4709",
	"type": 5,
	"name": "北海市",
	"rank": 69782,
	"pathtext": "根地理信息,亚洲,中国,南区,广西壮族自治区,北海市",
	"ename": "BeiHaiShi",
	"createdate": 1453196452287,
	"longitude": 109.12262792,
	"latitude": 21.47271824
}, {
	"unid": 4710,
	"punid": 4406,
	"pathunid": "-1,48,49,51333,4406,4710",
	"type": 5,
	"name": "宝鸡市",
	"rank": 77814,
	"pathtext": "根地理信息,亚洲,中国,西区,陕西省,宝鸡市",
	"ename": "BaoJiShi",
	"createdate": 1453196452287,
	"longitude": 107.17064545,
	"latitude": 34.36408081
}, {
	"unid": 4711,
	"punid": 4406,
	"pathunid": "-1,48,49,51333,4406,4711",
	"type": 5,
	"name": "铜川市",
	"rank": 35043,
	"pathtext": "根地理信息,亚洲,中国,西区,陕西省,铜川市",
	"ename": "TongChuanShi",
	"createdate": 1453196452287,
	"longitude": 108.96806701,
	"latitude": 34.9083677
}, {
	"unid": 4712,
	"punid": 4406,
	"pathunid": "-1,48,49,51333,4406,4712",
	"type": 5,
	"name": "西安市",
	"rank": 73047,
	"pathtext": "根地理信息,亚洲,中国,西区,陕西省,西安市",
	"ename": "XiAnShi",
	"createdate": 1453196452287,
	"longitude": 108.95309828,
	"latitude": 34.2777999
}, {
	"unid": 4713,
	"punid": 4406,
	"pathunid": "-1,48,49,51333,4406,4713",
	"type": 5,
	"name": "安康市",
	"rank": 88589,
	"pathtext": "根地理信息,亚洲,中国,西区,陕西省,安康市",
	"ename": "AnKangShi",
	"createdate": 1453196452287,
	"longitude": 109.03804456,
	"latitude": 32.70437045
}, {
	"unid": 4714,
	"punid": 4406,
	"pathunid": "-1,48,49,51333,4406,4714",
	"type": 5,
	"name": "商洛市",
	"rank": 10739,
	"pathtext": "根地理信息,亚洲,中国,西区,陕西省,商洛市",
	"ename": "ShangLuoShi",
	"createdate": 1453196452287,
	"longitude": 109.93420815,
	"latitude": 33.8739074
}, {
	"unid": 4715,
	"punid": 4406,
	"pathunid": "-1,48,49,51333,4406,4715",
	"type": 5,
	"name": "延安市",
	"rank": 85876,
	"pathtext": "根地理信息,亚洲,中国,西区,陕西省,延安市",
	"ename": "YanAnShi",
	"createdate": 1453196452287,
	"longitude": 109.50050976,
	"latitude": 36.60332035
}, {
	"unid": 4716,
	"punid": 4406,
	"pathunid": "-1,48,49,51333,4406,4716",
	"type": 5,
	"name": "汉中市",
	"rank": 25438,
	"pathtext": "根地理信息,亚洲,中国,西区,陕西省,汉中市",
	"ename": "HanZhongShi",
	"createdate": 1453196452287,
	"longitude": 107.04547763,
	"latitude": 33.08156898
}, {
	"unid": 4717,
	"punid": 4406,
	"pathunid": "-1,48,49,51333,4406,4717",
	"type": 5,
	"name": "榆林市",
	"rank": 32035,
	"pathtext": "根地理信息,亚洲,中国,西区,陕西省,榆林市",
	"ename": "YuLinShi",
	"createdate": 1453196452287,
	"longitude": 109.74592574,
	"latitude": 38.27943924
}, {
	"unid": 4718,
	"punid": 4406,
	"pathunid": "-1,48,49,51333,4406,4718",
	"type": 5,
	"name": "咸阳市",
	"rank": 53348,
	"pathtext": "根地理信息,亚洲,中国,西区,陕西省,咸阳市",
	"ename": "XianYangShi",
	"createdate": 1453196452287,
	"longitude": 108.70750928,
	"latitude": 34.345373
}, {
	"unid": 4719,
	"punid": 4406,
	"pathunid": "-1,48,49,51333,4406,4719",
	"type": 5,
	"name": "渭南市",
	"rank": 35508,
	"pathtext": "根地理信息,亚洲,中国,西区,陕西省,渭南市",
	"ename": "WeiNanShi",
	"createdate": 1453196452287,
	"longitude": 109.4839327,
	"latitude": 34.50235798
}, {
	"unid": 4720,
	"punid": 4383,
	"pathunid": "-1,48,49,51330,4383,4720",
	"type": 5,
	"name": "天津市",
	"rank": 66765,
	"pathtext": "根地理信息,亚洲,中国,北区,天津,天津市",
	"ename": "TianJinShi",
	"createdate": 1453196452287,
	"longitude": 117.21081309,
	"latitude": 39.1439299
}, {
	"unid": 4721,
	"punid": 4367,
	"pathunid": "-1,48,49,51332,4367,4721",
	"type": 5,
	"name": "云浮市",
	"rank": 34264,
	"pathtext": "根地理信息,亚洲,中国,南区,广东省,云浮市",
	"ename": "YunFuShi",
	"createdate": 1453196452287,
	"longitude": 112.05094596,
	"latitude": 22.93797569
}, {
	"unid": 4722,
	"punid": 4367,
	"pathunid": "-1,48,49,51332,4367,4722",
	"type": 5,
	"name": "揭阳市",
	"rank": 10635,
	"pathtext": "根地理信息,亚洲,中国,南区,广东省,揭阳市",
	"ename": "JieYangShi",
	"createdate": 1453196452287,
	"longitude": 116.37950086,
	"latitude": 23.54799947
}, {
	"unid": 4723,
	"punid": 4367,
	"pathunid": "-1,48,49,51332,4367,4723",
	"type": 5,
	"name": "潮州市",
	"rank": 49518,
	"pathtext": "根地理信息,亚洲,中国,南区,广东省,潮州市",
	"ename": "ChaoZhouShi",
	"createdate": 1453196452287,
	"longitude": 116.63007599,
	"latitude": 23.66181168
}, {
	"unid": 4724,
	"punid": 4367,
	"pathunid": "-1,48,49,51332,4367,4724",
	"type": 5,
	"name": "广州市",
	"rank": 89780,
	"pathtext": "根地理信息,亚洲,中国,南区,广东省,广州市",
	"ename": "GuangZhouShi",
	"createdate": 1453196452287,
	"longitude": 113.96473544,
	"latitude": 22.80170113
}, {
	"unid": 4725,
	"punid": 4367,
	"pathunid": "-1,48,49,51332,4367,4725",
	"type": 5,
	"name": "深圳市",
	"rank": 44240,
	"pathtext": "根地理信息,亚洲,中国,南区,广东省,深圳市",
	"ename": "ShenZhenShi",
	"createdate": 1453196452287,
	"longitude": 113.96473544,
	"latitude": 22.80170113
}, {
	"unid": 4726,
	"punid": 4367,
	"pathunid": "-1,48,49,51332,4367,4726",
	"type": 5,
	"name": "韶关市",
	"rank": 10474,
	"pathtext": "根地理信息,亚洲,中国,南区,广东省,韶关市",
	"ename": "ShaoGuanShi",
	"createdate": 1453196452287,
	"longitude": 113.59446111,
	"latitude": 24.80296031
}, {
	"unid": 4727,
	"punid": 4367,
	"pathunid": "-1,48,49,51332,4367,4727",
	"type": 5,
	"name": "东沙群岛",
	"rank": 76735,
	"pathtext": "根地理信息,亚洲,中国,南区,广东省,东沙群岛",
	"ename": "DongShaQunDao",
	"createdate": 1453196452287,
	"longitude": 116.63248902,
	"latitude": 20.73172649
}, {
	"unid": 4728,
	"punid": 4367,
	"pathunid": "-1,48,49,51332,4367,4728",
	"type": 5,
	"name": "中山市",
	"rank": 75878,
	"pathtext": "根地理信息,亚洲,中国,南区,广东省,中山市",
	"ename": "ZhongShanShi",
	"createdate": 1453196452287,
	"longitude": 113.58400639,
	"latitude": 22.47478625
}, {
	"unid": 4729,
	"punid": 4367,
	"pathunid": "-1,48,49,51332,4367,4729",
	"type": 5,
	"name": "东莞市",
	"rank": 43163,
	"pathtext": "根地理信息,亚洲,中国,南区,广东省,东莞市",
	"ename": "DongGuanShi",
	"createdate": 1453196452287,
	"longitude": 113.96473544,
	"latitude": 22.80170113
}, {
	"unid": 4730,
	"punid": 4367,
	"pathunid": "-1,48,49,51332,4367,4730",
	"type": 5,
	"name": "汕尾市",
	"rank": 71277,
	"pathtext": "根地理信息,亚洲,中国,南区,广东省,汕尾市",
	"ename": "ShanWeiShi",
	"createdate": 1453196452287,
	"longitude": 115.37292429,
	"latitude": 22.7787305
}, {
	"unid": 4731,
	"punid": 4367,
	"pathunid": "-1,48,49,51332,4367,4731",
	"type": 5,
	"name": "梅州市",
	"rank": 97145,
	"pathtext": "根地理信息,亚洲,中国,南区,广东省,梅州市",
	"ename": "MeiZhouShi",
	"createdate": 1453196452287,
	"longitude": 116.1264031,
	"latitude": 24.30457061
}, {
	"unid": 4732,
	"punid": 4367,
	"pathunid": "-1,48,49,51332,4367,4732",
	"type": 5,
	"name": "清远市",
	"rank": 52070,
	"pathtext": "根地理信息,亚洲,中国,南区,广东省,清远市",
	"ename": "QingYuanShi",
	"createdate": 1453196452287,
	"longitude": 113.04077335,
	"latitude": 23.69846855
}, {
	"unid": 4733,
	"punid": 4367,
	"pathunid": "-1,48,49,51332,4367,4733",
	"type": 5,
	"name": "阳江市",
	"rank": 19436,
	"pathtext": "根地理信息,亚洲,中国,南区,广东省,阳江市",
	"ename": "YangJiangShi",
	"createdate": 1453196452287,
	"longitude": 111.85521612,
	"latitude": 21.61044159
}, {
	"unid": 4734,
	"punid": 4367,
	"pathunid": "-1,48,49,51332,4367,4734",
	"type": 5,
	"name": "河源市",
	"rank": 65193,
	"pathtext": "根地理信息,亚洲,中国,南区,广东省,河源市",
	"ename": "HeYuanShi",
	"createdate": 1453196452287,
	"longitude": 114.71372148,
	"latitude": 23.75725085
}, {
	"unid": 4735,
	"punid": 4367,
	"pathunid": "-1,48,49,51332,4367,4735",
	"type": 5,
	"name": "茂名市",
	"rank": 86131,
	"pathtext": "根地理信息,亚洲,中国,南区,广东省,茂名市",
	"ename": "MaoMingShi",
	"createdate": 1453196452287,
	"longitude": 110.93124533,
	"latitude": 21.66822572
}, {
	"unid": 4736,
	"punid": 4367,
	"pathunid": "-1,48,49,51332,4367,4736",
	"type": 5,
	"name": "惠州市",
	"rank": 92918,
	"pathtext": "根地理信息,亚洲,中国,南区,广东省,惠州市",
	"ename": "HuiZhouShi",
	"createdate": 1453196452287,
	"longitude": 114.62235647,
	"latitude": 22.69919399
}, {
	"unid": 4737,
	"punid": 4367,
	"pathunid": "-1,48,49,51332,4367,4737",
	"type": 5,
	"name": "肇庆市",
	"rank": 50015,
	"pathtext": "根地理信息,亚洲,中国,南区,广东省,肇庆市",
	"ename": "ZhaoQingShi",
	"createdate": 1453196452287,
	"longitude": 112.47965337,
	"latitude": 23.07866328
}, {
	"unid": 4738,
	"punid": 4367,
	"pathunid": "-1,48,49,51332,4367,4738",
	"type": 5,
	"name": "汕头市",
	"rank": 6914,
	"pathtext": "根地理信息,亚洲,中国,南区,广东省,汕头市",
	"ename": "ShanTouShi",
	"createdate": 1453196452287,
	"longitude": 116.72865029,
	"latitude": 23.38390845
}, {
	"unid": 4739,
	"punid": 4367,
	"pathunid": "-1,48,49,51332,4367,4739",
	"type": 5,
	"name": "珠海市",
	"rank": 6375,
	"pathtext": "根地理信息,亚洲,中国,南区,广东省,珠海市",
	"ename": "ZhuHaiShi",
	"createdate": 1453196452287,
	"longitude": 114.62235647,
	"latitude": 22.69919399
}, {
	"unid": 4740,
	"punid": 4367,
	"pathunid": "-1,48,49,51332,4367,4740",
	"type": 5,
	"name": "湛江市",
	"rank": 59998,
	"pathtext": "根地理信息,亚洲,中国,南区,广东省,湛江市",
	"ename": "ZhanJiangShi",
	"createdate": 1453196452287,
	"longitude": 110.36506726,
	"latitude": 21.2574631
}, {
	"unid": 4741,
	"punid": 4367,
	"pathunid": "-1,48,49,51332,4367,4741",
	"type": 5,
	"name": "佛山市",
	"rank": 61957,
	"pathtext": "根地理信息,亚洲,中国,南区,广东省,佛山市",
	"ename": "FoShanShi",
	"createdate": 1453196452287,
	"longitude": 113.13402564,
	"latitude": 23.03509484
}, {
	"unid": 4742,
	"punid": 4367,
	"pathunid": "-1,48,49,51332,4367,4742",
	"type": 5,
	"name": "江门市",
	"rank": 23188,
	"pathtext": "根地理信息,亚洲,中国,南区,广东省,江门市",
	"ename": "JiangMenShi",
	"createdate": 1453196452287,
	"longitude": 113.07812534,
	"latitude": 22.57511678
}, {
	"unid": 4743,
	"punid": 4371,
	"pathunid": "-1,48,49,51333,4371,4743",
	"type": 5,
	"name": "重庆市",
	"rank": 63770,
	"pathtext": "根地理信息,亚洲,中国,西区,重庆,重庆市",
	"ename": "ChongQingShi",
	"createdate": 1453196452287,
	"longitude": 106.53063501,
	"latitude": 29.54460611
}, {
	"unid": 4744,
	"punid": 4361,
	"pathunid": "-1,48,49,51330,4361,4744",
	"type": 5,
	"name": "衡水市",
	"rank": 96467,
	"pathtext": "根地理信息,亚洲,中国,北区,河北省,衡水市",
	"ename": "HengShuiShi",
	"createdate": 1453196452287,
	"longitude": 115.68622865,
	"latitude": 37.74692905
}, {
	"unid": 4745,
	"punid": 4361,
	"pathunid": "-1,48,49,51330,4361,4745",
	"type": 5,
	"name": "石家庄市",
	"rank": 73007,
	"pathtext": "根地理信息,亚洲,中国,北区,河北省,石家庄市",
	"ename": "ShiJiaZhuangShi",
	"createdate": 1453196452287,
	"longitude": 114.52208184,
	"latitude": 38.04895831
}, {
	"unid": 4746,
	"punid": 4361,
	"pathunid": "-1,48,49,51330,4361,4746",
	"type": 5,
	"name": "唐山市",
	"rank": 83092,
	"pathtext": "根地理信息,亚洲,中国,北区,河北省,唐山市",
	"ename": "TangShanShi",
	"createdate": 1453196452287,
	"longitude": 118.1834506,
	"latitude": 39.65053092
}, {
	"unid": 4747,
	"punid": 4361,
	"pathunid": "-1,48,49,51330,4361,4747",
	"type": 5,
	"name": "秦皇岛市",
	"rank": 88639,
	"pathtext": "根地理信息,亚洲,中国,北区,河北省,秦皇岛市",
	"ename": "QinHuangDaoShi",
	"createdate": 1453196452287,
	"longitude": 119.60436762,
	"latitude": 39.94546157
},